{"type":"FeatureCollection","features":[{"type":"Feature","id":3811223,"geometry":{"type":"Point","coordinates":[-0.41628716884579542,39.507720624636448]},"properties":{"gid":3811223,"id_parada":1044,"codvia":null,"numportal":"POLIESPORTIU","suprimida":0,"denominacion":"Poliesportiu de Burjassot (1044)","lineas":"63","proximas_llegadas":"http://www.emtvalencia.es/QR.php?sec=est&p=1044"}},{"type":"Feature","id":3811224,"geometry":{"type":"Point","coordinates":[-0.41732829525808551,39.499555464739977]},"properties":{"gid":3811224,"id_parada":383,"codvia":null,"numportal":"2","suprimida":0,"denominacion":"Dr. Soriano Benlloch - Rafael Tenes Escrich (383)","lineas":"62","proximas_llegadas":"http://www.emtvalencia.es/QR.php?sec=est&p=383"}},{"type":"Feature","id":3811225,"geometry":{"type":"Point","coordinates":[-0.4279307015844851,39.508193551024618]},"properties":{"gid":3811225,"id_parada":390,"codvia":null,"numportal":"1","suprimida":0,"denominacion":"Terramelar  (390)","lineas":"62","proximas_llegadas":"http://www.emtvalencia.es/QR.php?sec=est&p=390"}},{"type":"Feature","id":3811226,"geometry":{"type":"Point","coordinates":[-0.42512639663359236,39.500658302871948]},"properties":{"gid":3811226,"id_parada":394,"codvia":null,"numportal":"HOTEL","suprimida":0,"denominacion":"Polvorí - Campament (394)","lineas":"62","proximas_llegadas":"http://www.emtvalencia.es/QR.php?sec=est&p=394"}},{"type":"Feature","id":3811227,"geometry":{"type":"Point","coordinates":[-0.41912377427555919,39.501427898376356]},"properties":{"gid":3811227,"id_parada":397,"codvia":null,"numportal":"59","suprimida":0,"denominacion":"Felipe Valls - Lluís Cano (397)","lineas":"62,N3","proximas_llegadas":"http://www.emtvalencia.es/QR.php?sec=est&p=397"}},{"type":"Feature","id":3811228,"geometry":{"type":"Point","coordinates":[-0.36549410035572211,39.506878414196301]},"properties":{"gid":3811228,"id_parada":948,"codvia":null,"numportal":"62","suprimida":0,"denominacion":"Tavernes Blanques (948)","lineas":"16,N2","proximas_llegadas":"http://www.emtvalencia.es/QR.php?sec=est&p=948"}},{"type":"Feature","id":3811229,"geometry":{"type":"Point","coordinates":[-0.35413266224590229,39.495950606273986]},"properties":{"gid":3811229,"id_parada":855,"codvia":null,"numportal":"41","suprimida":0,"denominacion":"Orxata - Mestre Serrano (855)","lineas":"70","proximas_llegadas":"http://www.emtvalencia.es/QR.php?sec=est&p=855"}},{"type":"Feature","id":3811230,"geometry":{"type":"Point","coordinates":[-0.41875480572270729,39.501456205745974]},"properties":{"gid":3811230,"id_parada":384,"codvia":null,"numportal":"6 (DAVANT)","suprimida":0,"denominacion":"Benimàmet (384)","lineas":"62","proximas_llegadas":"http://www.emtvalencia.es/QR.php?sec=est&p=384"}},{"type":"Feature","id":3811298,"geometry":{"type":"Point","coordinates":[-0.39518664218834743,39.470719075707763]},"properties":{"gid":3811298,"id_parada":475,"codvia":12180,"numportal":"3","suprimida":0,"denominacion":"Brasil - Artur Piera (475)","lineas":"73","proximas_llegadas":"http://www.emtvalencia.es/QR.php?sec=est&p=475"}},{"type":"Feature","id":3811299,"geometry":{"type":"Point","coordinates":[-0.40320986877443921,39.469609703935738]},"properties":{"gid":3811299,"id_parada":484,"codvia":18390,"numportal":"108","suprimida":0,"denominacion":"Cid - Passatge Vidal (484)","lineas":"70,93,N4","proximas_llegadas":"http://www.emtvalencia.es/QR.php?sec=est&p=484"}},{"type":"Feature","id":3811300,"geometry":{"type":"Point","coordinates":[-0.41321106364221288,39.469233328598364]},"properties":{"gid":3811300,"id_parada":495,"codvia":18390,"numportal":"85","suprimida":0,"denominacion":"Cid - Marconi (495)","lineas":"93,98","proximas_llegadas":"http://www.emtvalencia.es/QR.php?sec=est&p=495"}},{"type":"Feature","id":3811301,"geometry":{"type":"Point","coordinates":[-0.39966394654986964,39.463951326227892]},"properties":{"gid":3811301,"id_parada":512,"codvia":73950,"numportal":"82","suprimida":0,"denominacion":"Tres Forques - Santa Cruz de Tenerife (512)","lineas":"71,N5","proximas_llegadas":"http://www.emtvalencia.es/QR.php?sec=est&p=512"}},{"type":"Feature","id":3811302,"geometry":{"type":"Point","coordinates":[-0.37647215236100517,39.45790463610097]},"properties":{"gid":3811302,"id_parada":606,"codvia":30210,"numportal":"BARDISSA CENTRAL","suprimida":0,"denominacion":"Parc Central (606)","lineas":"90","proximas_llegadas":"http://www.emtvalencia.es/QR.php?sec=est&p=606"}},{"type":"Feature","id":3811334,"geometry":{"type":"Point","coordinates":[-0.38367602992224537,39.466137318454088]},"properties":{"gid":3811334,"id_parada":739,"codvia":38250,"numportal":"44","suprimida":0,"denominacion":"Jesús - Sant Francesc de Borja (739)","lineas":"10,11,27,71,9,N6","proximas_llegadas":"http://www.emtvalencia.es/QR.php?sec=est&p=739"}},{"type":"Feature","id":3811335,"geometry":{"type":"Point","coordinates":[-0.38540773578259496,39.461398095303188]},"properties":{"gid":3811335,"id_parada":742,"codvia":1140,"numportal":"41","suprimida":0,"denominacion":"Albacete - Mestre Sosa (742)","lineas":"10,9","proximas_llegadas":"http://www.emtvalencia.es/QR.php?sec=est&p=742"}},{"type":"Feature","id":3811336,"geometry":{"type":"Point","coordinates":[-0.39332784593834796,39.464672727655632]},"properties":{"gid":3811336,"id_parada":758,"codvia":7710,"numportal":"31","suprimida":0,"denominacion":"Aiora - Mariano Ribera (758)","lineas":"72,N5","proximas_llegadas":"http://www.emtvalencia.es/QR.php?sec=est&p=758"}},{"type":"Feature","id":3811337,"geometry":{"type":"Point","coordinates":[-0.36413769904304755,39.46928963085881]},"properties":{"gid":3811337,"id_parada":764,"codvia":5160,"numportal":"1 (DAVANT RIU)","suprimida":0,"denominacion":"Plaça Amèrica (764)","lineas":"10,12,24,25,4,94,95,N1,N8","proximas_llegadas":"http://www.emtvalencia.es/QR.php?sec=est&p=764"}},{"type":"Feature","id":3811338,"geometry":{"type":"Point","coordinates":[-0.3648790315684442,39.469526996173229]},"properties":{"gid":3811338,"id_parada":777,"codvia":5160,"numportal":"2","suprimida":0,"denominacion":"Amèrica - Marqués del Túria (777)","lineas":"13,24,25,95,N8","proximas_llegadas":"http://www.emtvalencia.es/QR.php?sec=est&p=777"}},{"type":"Feature","id":3811370,"geometry":{"type":"Point","coordinates":[-0.39559836997229109,39.474462964403088]},"properties":{"gid":3811370,"id_parada":425,"codvia":57300,"numportal":"137","suprimida":0,"denominacion":"Pérez Galdós - Democràcia (425)","lineas":"67,89","proximas_llegadas":"http://www.emtvalencia.es/QR.php?sec=est&p=425"}},{"type":"Feature","id":3811371,"geometry":{"type":"Point","coordinates":[-0.37043901258816153,39.494126688356388]},"properties":{"gid":3811371,"id_parada":199,"codvia":55140,"numportal":"72","suprimida":0,"denominacion":"Pare Viñas - Duc de Mandas (199)","lineas":"11","proximas_llegadas":"http://www.emtvalencia.es/QR.php?sec=est&p=199"}},{"type":"Feature","id":3811372,"geometry":{"type":"Point","coordinates":[-0.36907412636642267,39.488275059475299]},"properties":{"gid":3811372,"id_parada":207,"codvia":61410,"numportal":"44","suprimida":0,"denominacion":"Primat Reig - Almassora (207)","lineas":"11,90,N2","proximas_llegadas":"http://www.emtvalencia.es/QR.php?sec=est&p=207"}},{"type":"Feature","id":3811373,"geometry":{"type":"Point","coordinates":[-0.36617120698655597,39.486132856561134]},"properties":{"gid":3811373,"id_parada":216,"codvia":61410,"numportal":"101 (DAVANT JARDÍ)","suprimida":0,"denominacion":"Primat Reig - Calderón de la Barca (216)","lineas":"90,N2","proximas_llegadas":"http://www.emtvalencia.es/QR.php?sec=est&p=216"}},{"type":"Feature","id":3811374,"geometry":{"type":"Point","coordinates":[-0.37023003748012095,39.498876221952919]},"properties":{"gid":3811374,"id_parada":248,"codvia":62610,"numportal":"282","suprimida":0,"denominacion":"Sant Miquel dels Reis (248)","lineas":"16,N2","proximas_llegadas":"http://www.emtvalencia.es/QR.php?sec=est&p=248"}},{"type":"Feature","id":3811375,"geometry":{"type":"Point","coordinates":[-0.37453372487586517,39.49347910597799]},"properties":{"gid":3811375,"id_parada":272,"codvia":70530,"numportal":"13","suprimida":0,"denominacion":"Sant Doménec Savio - Mestre Marçal (272)","lineas":"6,60","proximas_llegadas":"http://www.emtvalencia.es/QR.php?sec=est&p=272"}},{"type":"Feature","id":3811405,"geometry":{"type":"Point","coordinates":[-0.38906932470439815,39.464112133854066]},"properties":{"gid":3811405,"id_parada":533,"codvia":73950,"numportal":"3","suprimida":0,"denominacion":"Tres Forques - Pérez Galdós (533)","lineas":"71","proximas_llegadas":"http://www.emtvalencia.es/QR.php?sec=est&p=533"}},{"type":"Feature","id":3811406,"geometry":{"type":"Point","coordinates":[-0.40336591974476937,39.457521702032409]},"properties":{"gid":3811406,"id_parada":540,"codvia":57960,"numportal":"2","suprimida":0,"denominacion":"Camí nou de Picanya - Tres Creus (540)","lineas":"72,73,N5","proximas_llegadas":"http://www.emtvalencia.es/QR.php?sec=est&p=540"}},{"type":"Feature","id":3811407,"geometry":{"type":"Point","coordinates":[-0.3873477207105066,39.461846363644305]},"properties":{"gid":3811407,"id_parada":546,"codvia":38250,"numportal":"94","suprimida":0,"denominacion":"Hospital Verge del Consol (546)","lineas":"11,9,N6","proximas_llegadas":"http://www.emtvalencia.es/QR.php?sec=est&p=546"}},{"type":"Feature","id":3811408,"geometry":{"type":"Point","coordinates":[-0.39219459445835936,39.459766761711869]},"properties":{"gid":3811408,"id_parada":552,"codvia":59460,"numportal":"3","suprimida":0,"denominacion":"Pius XI - Manuel Simó (552)","lineas":"11","proximas_llegadas":"http://www.emtvalencia.es/QR.php?sec=est&p=552"}},{"type":"Feature","id":3811409,"geometry":{"type":"Point","coordinates":[-0.38860251610619584,39.459298257302954]},"properties":{"gid":3811409,"id_parada":557,"codvia":32790,"numportal":"2","suprimida":0,"denominacion":"Gaspar Aguilar - Jesús (557)","lineas":"9,N6","proximas_llegadas":"http://www.emtvalencia.es/QR.php?sec=est&p=557"}},{"type":"Feature","id":3811410,"geometry":{"type":"Point","coordinates":[-0.38894608386892526,39.440114354553131]},"properties":{"gid":3811410,"id_parada":580,"codvia":39180,"numportal":"22","suprimida":0,"denominacion":"José Soto Micó - Alcalà de Xivert (580)","lineas":"27,9,N6","proximas_llegadas":"http://www.emtvalencia.es/QR.php?sec=est&p=580"}},{"type":"Feature","id":3811604,"geometry":{"type":"Point","coordinates":[-0.38644053594252531,39.517611953395466]},"properties":{"gid":3811604,"id_parada":2262,"codvia":null,"numportal":"S/N","suprimida":0,"denominacion":"Palmaret (parell) - Montcada (2262)","lineas":"26","proximas_llegadas":"http://www.emtvalencia.es/QR.php?sec=est&p=2262"}},{"type":"Feature","id":3811605,"geometry":{"type":"Point","coordinates":[-0.35284397501902387,39.452636588319436]},"properties":{"gid":3811605,"id_parada":2242,"codvia":81612,"numportal":"S/N (C.C.SALER DAVANT)","suprimida":0,"denominacion":"Actor Antonio Ferrandis - Centre Comercial (2242)","lineas":"99","proximas_llegadas":"http://www.emtvalencia.es/QR.php?sec=est&p=2242"}},{"type":"Feature","id":3811606,"geometry":{"type":"Point","coordinates":[-0.39588203093587382,39.485590015348073]},"properties":{"gid":3811606,"id_parada":2307,"codvia":59490,"numportal":"S/N (ILLETA)","suprimida":0,"denominacion":"General Avilés (illeta) - Pius XII (2307)","lineas":"94","proximas_llegadas":"http://www.emtvalencia.es/QR.php?sec=est&p=2307"}},{"type":"Feature","id":3811607,"geometry":{"type":"Point","coordinates":[-0.34046236865022428,39.450569236562316]},"properties":{"gid":3811607,"id_parada":2046,"codvia":null,"numportal":"1 (DAVANT)","suprimida":0,"denominacion":"Barraques del Figuero (parell) - Llauradors (2046)","lineas":"15,95","proximas_llegadas":"http://www.emtvalencia.es/QR.php?sec=est&p=2046"}},{"type":"Feature","id":3811608,"geometry":{"type":"Point","coordinates":[-0.34038446764873836,39.450730386568232]},"properties":{"gid":3811608,"id_parada":2049,"codvia":null,"numportal":"1","suprimida":0,"denominacion":"Barraques del Figuero (imparell) - Llauradors (2049)","lineas":"15,95","proximas_llegadas":"http://www.emtvalencia.es/QR.php?sec=est&p=2049"}},{"type":"Feature","id":3811633,"geometry":{"type":"Point","coordinates":[-0.36237605002326428,39.45559519452403]},"properties":{"gid":3811633,"id_parada":2298,"codvia":33480,"numportal":"61","suprimida":0,"denominacion":"Amado Granell Mesado (imparell) - Arabista Ambrosio Huici (2298)","lineas":"14,35,N9","proximas_llegadas":"http://www.emtvalencia.es/QR.php?sec=est&p=2298"}},{"type":"Feature","id":3811673,"geometry":{"type":"Point","coordinates":[-0.38194995132233106,39.46644993440367]},"properties":{"gid":3811673,"id_parada":1968,"codvia":62670,"numportal":"18","suprimida":0,"denominacion":"Plaça d'Espanya (1968)","lineas":"64,93","proximas_llegadas":"http://www.emtvalencia.es/QR.php?sec=est&p=1968"}},{"type":"Feature","id":3811674,"geometry":{"type":"Point","coordinates":[-0.36954004955791941,39.445592276979887]},"properties":{"gid":3811674,"id_parada":1994,"codvia":81628,"numportal":"S/N (GASOLINERA)","suprimida":0,"denominacion":"Bulevard Sud - Ausiàs March (1994)","lineas":"99,N7","proximas_llegadas":"http://www.emtvalencia.es/QR.php?sec=est&p=1994"}},{"type":"Feature","id":3811675,"geometry":{"type":"Point","coordinates":[-0.37424537035895378,39.470560785457039]},"properties":{"gid":3811675,"id_parada":2014,"codvia":60480,"numportal":"14","suprimida":0,"denominacion":"Teatre Principal (2014)","lineas":"31,4,6","proximas_llegadas":"http://www.emtvalencia.es/QR.php?sec=est&p=2014"}},{"type":"Feature","id":3811676,"geometry":{"type":"Point","coordinates":[-0.41286514104077998,39.467068161754767]},"properties":{"gid":3811676,"id_parada":2008,"codvia":54810,"numportal":"22","suprimida":0,"denominacion":"Pare Esteban Pernet  - Centre Comercial (2008)","lineas":"71","proximas_llegadas":"http://www.emtvalencia.es/QR.php?sec=est&p=2008"}},{"type":"Feature","id":3811677,"geometry":{"type":"Point","coordinates":[-0.40354927202647156,39.481090336937136]},"properties":{"gid":3811677,"id_parada":2064,"codvia":81637,"numportal":"2-B","suprimida":0,"denominacion":"Terrateig - Jorge Comín (2064)","lineas":"67","proximas_llegadas":"http://www.emtvalencia.es/QR.php?sec=est&p=2064"}},{"type":"Feature","id":3811678,"geometry":{"type":"Point","coordinates":[-0.39907585954838853,39.478597925083172]},"properties":{"gid":3811678,"id_parada":2067,"codvia":74730,"numportal":"43","suprimida":0,"denominacion":"Vall de la Ballestera - Eduardo Soler i Pérez (2067)","lineas":"67","proximas_llegadas":"http://www.emtvalencia.es/QR.php?sec=est&p=2067"}},{"type":"Feature","id":3811679,"geometry":{"type":"Point","coordinates":[-0.40504420995549334,39.470641956274534]},"properties":{"gid":3811679,"id_parada":2071,"codvia":53070,"numportal":"S/N CONSELLERIES","suprimida":0,"denominacion":"Ciutat Administrativa 9 d'Octubre (2071)","lineas":"73,95,98,99","proximas_llegadas":"http://www.emtvalencia.es/QR.php?sec=est&p=2071"}},{"type":"Feature","id":3811680,"geometry":{"type":"Point","coordinates":[-0.36744421409526329,39.533671049329854]},"properties":{"gid":3811680,"id_parada":2084,"codvia":null,"numportal":"S/N","suprimida":0,"denominacion":"Vinalesa (2084)","lineas":"16","proximas_llegadas":"http://www.emtvalencia.es/QR.php?sec=est&p=2084"}},{"type":"Feature","id":3811681,"geometry":{"type":"Point","coordinates":[-0.38777097022666762,39.542782979219552]},"properties":{"gid":3811681,"id_parada":2105,"codvia":null,"numportal":"S/N","suprimida":0,"denominacion":"Moncada - Alfara (2105)","lineas":"26","proximas_llegadas":"http://www.emtvalencia.es/QR.php?sec=est&p=2105"}},{"type":"Feature","id":3811682,"geometry":{"type":"Point","coordinates":[-0.32578313238362377,39.487652364008326]},"properties":{"gid":3811682,"id_parada":2112,"codvia":null,"numportal":"38","suprimida":0,"denominacion":"Mare Nostrum - Mar Tirreno (2112)","lineas":"31","proximas_llegadas":"http://www.emtvalencia.es/QR.php?sec=est&p=2112"}},{"type":"Feature","id":3811825,"geometry":{"type":"Point","coordinates":[-0.38469769380185215,39.452791150464698]},"properties":{"gid":3811825,"id_parada":576,"codvia":69330,"numportal":"278","suprimida":0,"denominacion":"Sant Vicent Màrtir - Joaquín Navarro (576)","lineas":"27,64","proximas_llegadas":"http://www.emtvalencia.es/QR.php?sec=est&p=576"}},{"type":"Feature","id":3811826,"geometry":{"type":"Point","coordinates":[-0.38753340838630651,39.443686601838969]},"properties":{"gid":3811826,"id_parada":579,"codvia":69330,"numportal":"438","suprimida":0,"denominacion":"Sant Vicent Màrtir (parell) - Arquebisbe Olaechea (579)","lineas":"27,9,N6","proximas_llegadas":"http://www.emtvalencia.es/QR.php?sec=est&p=579"}},{"type":"Feature","id":3811827,"geometry":{"type":"Point","coordinates":[-0.39291208110160197,39.429929164492044]},"properties":{"gid":3811827,"id_parada":583,"codvia":63090,"numportal":"100","suprimida":0,"denominacion":"Real de Madrid (parell) - Eduardo Dato (583)","lineas":"27,9,N6","proximas_llegadas":"http://www.emtvalencia.es/QR.php?sec=est&p=583"}},{"type":"Feature","id":3811828,"geometry":{"type":"Point","coordinates":[-0.39347150451799212,39.427384253103938]},"properties":{"gid":3811828,"id_parada":586,"codvia":81170,"numportal":"1","suprimida":0,"denominacion":"La Torre (586)","lineas":"27,N6","proximas_llegadas":"http://www.emtvalencia.es/QR.php?sec=est&p=586"}},{"type":"Feature","id":3811829,"geometry":{"type":"Point","coordinates":[-0.38527892909105504,39.449146389388616]},"properties":{"gid":3811829,"id_parada":593,"codvia":69330,"numportal":"289","suprimida":0,"denominacion":"Sant Vicent Màrtir - Altamira (593)","lineas":"27,64","proximas_llegadas":"http://www.emtvalencia.es/QR.php?sec=est&p=593"}},{"type":"Feature","id":3811830,"geometry":{"type":"Point","coordinates":[-0.3707485893765573,39.458888583158206]},"properties":{"gid":3811830,"id_parada":598,"codvia":57630,"numportal":"84","suprimida":0,"denominacion":"Peris i Valero - Sapadors (598)","lineas":"89","proximas_llegadas":"http://www.emtvalencia.es/QR.php?sec=est&p=598"}},{"type":"Feature","id":3811831,"geometry":{"type":"Point","coordinates":[-0.36560007252275822,39.461067848721292]},"properties":{"gid":3811831,"id_parada":600,"codvia":57630,"numportal":"156","suprimida":0,"denominacion":"Peris i Valero - Pere Aleixandre (600)","lineas":"14,15,89","proximas_llegadas":"http://www.emtvalencia.es/QR.php?sec=est&p=600"}},{"type":"Feature","id":3811858,"geometry":{"type":"Point","coordinates":[-0.39691611782509767,39.445778592348603]},"properties":{"gid":3811858,"id_parada":1474,"codvia":58020,"numportal":"S/N","suprimida":0,"denominacion":"Accés Cementeri (1474)","lineas":"10","proximas_llegadas":"http://www.emtvalencia.es/QR.php?sec=est&p=1474"}},{"type":"Feature","id":3811859,"geometry":{"type":"Point","coordinates":[-0.3814219694544736,39.516148297991315]},"properties":{"gid":3811859,"id_parada":1485,"codvia":null,"numportal":"S/N","suprimida":0,"denominacion":"Palmaret - Rosa dels Vents (davant) (1485)","lineas":"26","proximas_llegadas":"http://www.emtvalencia.es/QR.php?sec=est&p=1485"}},{"type":"Feature","id":3811860,"geometry":{"type":"Point","coordinates":[-0.347228853313095,39.480107161389128]},"properties":{"gid":3811860,"id_parada":1489,"codvia":42340,"numportal":"S/N","suprimida":0,"denominacion":"Tarongers - Facultat de Magisteri (1489)","lineas":"18,93,98","proximas_llegadas":"http://www.emtvalencia.es/QR.php?sec=est&p=1489"}},{"type":"Feature","id":3811861,"geometry":{"type":"Point","coordinates":[-0.34754098697231889,39.480822779391687]},"properties":{"gid":3811861,"id_parada":1490,"codvia":42340,"numportal":"S/N","suprimida":0,"denominacion":"Tarongers - Junt Entrada Universitats (1490)","lineas":"93,98","proximas_llegadas":"http://www.emtvalencia.es/QR.php?sec=est&p=1490"}},{"type":"Feature","id":3811862,"geometry":{"type":"Point","coordinates":[-0.34302739368453122,39.468066870154793]},"properties":{"gid":3811862,"id_parada":1499,"codvia":70620,"numportal":"JUNT ESTACIÓ METRO","suprimida":0,"denominacion":"Aiora (1499)","lineas":"32","proximas_llegadas":"http://www.emtvalencia.es/QR.php?sec=est&p=1499"}},{"type":"Feature","id":3811899,"geometry":{"type":"Point","coordinates":[-0.35521116231299177,39.437035629502965]},"properties":{"gid":3811899,"id_parada":660,"codvia":31740,"numportal":"188","suprimida":0,"denominacion":"Mercavalència (660)","lineas":"14","proximas_llegadas":"http://www.emtvalencia.es/QR.php?sec=est&p=660"}},{"type":"Feature","id":3812057,"geometry":{"type":"Point","coordinates":[-0.339188778152408,39.461818840409592]},"properties":{"gid":3812057,"id_parada":1622,"codvia":25680,"numportal":"256","suprimida":0,"denominacion":"Port - Eivissa (1622)","lineas":"30,4,92,N8","proximas_llegadas":"http://www.emtvalencia.es/QR.php?sec=est&p=1622"}},{"type":"Feature","id":3812058,"geometry":{"type":"Point","coordinates":[-0.35783792229267031,39.455811592703874]},"properties":{"gid":3812058,"id_parada":1416,"codvia":81384,"numportal":"21","suprimida":0,"denominacion":"Inst. Obrer de Val. (imparell) - Autopista Saler (1416)","lineas":"13,35,N9","proximas_llegadas":"http://www.emtvalencia.es/QR.php?sec=est&p=1416"}},{"type":"Feature","id":3812059,"geometry":{"type":"Point","coordinates":[-0.3605944113820716,39.454415395775328]},"properties":{"gid":3812059,"id_parada":1418,"codvia":81384,"numportal":"2","suprimida":0,"denominacion":"Inst. Obrer de Val. (parell) - Amado Granell Mesado (1418)","lineas":"13,35,N9","proximas_llegadas":"http://www.emtvalencia.es/QR.php?sec=est&p=1418"}},{"type":"Feature","id":3812060,"geometry":{"type":"Point","coordinates":[-0.39358645244235191,39.4759735263533]},"properties":{"gid":3812060,"id_parada":1423,"codvia":56340,"numportal":"41","suprimida":0,"denominacion":"Petxina - Terol (1423)","lineas":"95","proximas_llegadas":"http://www.emtvalencia.es/QR.php?sec=est&p=1423"}},{"type":"Feature","id":3812061,"geometry":{"type":"Point","coordinates":[-0.38430304779318536,39.479607173128151]},"properties":{"gid":3812061,"id_parada":1425,"codvia":56340,"numportal":"3","suprimida":0,"denominacion":"Petxina - Túria (1425)","lineas":"95","proximas_llegadas":"http://www.emtvalencia.es/QR.php?sec=est&p=1425"}},{"type":"Feature","id":3812062,"geometry":{"type":"Point","coordinates":[-0.39291533587780414,39.478422120719479]},"properties":{"gid":3812062,"id_parada":1431,"codvia":72870,"numportal":"5 (ACCÉS)","suprimida":0,"denominacion":"Tirso de Molina - Pius XII (1431)","lineas":"95","proximas_llegadas":"http://www.emtvalencia.es/QR.php?sec=est&p=1431"}},{"type":"Feature","id":3812063,"geometry":{"type":"Point","coordinates":[-0.39119199867085647,39.447297352157136]},"properties":{"gid":3812063,"id_parada":1440,"codvia":25080,"numportal":"10 (CARRIL BUS)","suprimida":0,"denominacion":"Sant Marcel·lí (1440)","lineas":"10,9,99,N6","proximas_llegadas":"http://www.emtvalencia.es/QR.php?sec=est&p=1440"}},{"type":"Feature","id":3812090,"geometry":{"type":"Point","coordinates":[-0.38930104726102649,39.450076237930382]},"properties":{"gid":3812090,"id_parada":975,"codvia":15390,"numportal":"62","suprimida":0,"denominacion":"Carters - Calvo Acacio (975)","lineas":"10","proximas_llegadas":"http://www.emtvalencia.es/QR.php?sec=est&p=975"}},{"type":"Feature","id":3812091,"geometry":{"type":"Point","coordinates":[-0.38897423606089448,39.450171273105113]},"properties":{"gid":3812091,"id_parada":979,"codvia":15390,"numportal":"60 (DAVANT)","suprimida":0,"denominacion":"Carters - Mossén Febrer (979)","lineas":"10,N6","proximas_llegadas":"http://www.emtvalencia.es/QR.php?sec=est&p=979"}},{"type":"Feature","id":3812092,"geometry":{"type":"Point","coordinates":[-0.4040932418372411,39.478678017379103]},"properties":{"gid":3812092,"id_parada":1662,"codvia":74730,"numportal":"60","suprimida":0,"denominacion":"Vall de la Ballestera - Pío Baroja (1662)","lineas":"98,99","proximas_llegadas":"http://www.emtvalencia.es/QR.php?sec=est&p=1662"}},{"type":"Feature","id":3812093,"geometry":{"type":"Point","coordinates":[-0.35871702682051892,39.459861611041042]},"properties":{"gid":3812093,"id_parada":1665,"codvia":1710,"numportal":"9 (ACCES)(DAVANT)","suprimida":0,"denominacion":"Alcalde Reig (imparell) - Pere Aleixandre (1665)","lineas":"15,24,25,95","proximas_llegadas":"http://www.emtvalencia.es/QR.php?sec=est&p=1665"}},{"type":"Feature","id":3812094,"geometry":{"type":"Point","coordinates":[-0.42430474457346279,39.505677761999614]},"properties":{"gid":3812094,"id_parada":1715,"codvia":null,"numportal":"S/N","suprimida":0,"denominacion":"Fires(parell) - Cementeri (1715)","lineas":"62","proximas_llegadas":"http://www.emtvalencia.es/QR.php?sec=est&p=1715"}},{"type":"Feature","id":3812099,"geometry":{"type":"Point","coordinates":[-0.3812156649651316,39.465966328546209]},"properties":{"gid":3812099,"id_parada":815,"codvia":81467,"numportal":"3","suprimida":0,"denominacion":"Plaça Espanya (815)","lineas":"10,27,9,N6","proximas_llegadas":"http://www.emtvalencia.es/QR.php?sec=est&p=815"}},{"type":"Feature","id":3812165,"geometry":{"type":"Point","coordinates":[-0.35752243135075024,39.477320817046092]},"properties":{"gid":3812165,"id_parada":157,"codvia":900,"numportal":"25","suprimida":0,"denominacion":"Blasco Ibáñez - Gascó Oliag (157)","lineas":"10,12,79,89","proximas_llegadas":"http://www.emtvalencia.es/QR.php?sec=est&p=157"}},{"type":"Feature","id":3812166,"geometry":{"type":"Point","coordinates":[-0.36004677973660021,39.478070606781344]},"properties":{"gid":3812166,"id_parada":158,"codvia":900,"numportal":"21 DUP.","suprimida":0,"denominacion":"Facultat de Psicologia (158)","lineas":"12,30,31,71,79,81,89","proximas_llegadas":"http://www.emtvalencia.es/QR.php?sec=est&p=158"}},{"type":"Feature","id":3812167,"geometry":{"type":"Point","coordinates":[-0.35920429410147164,39.476837677026573]},"properties":{"gid":3812167,"id_parada":167,"codvia":900,"numportal":"32","suprimida":0,"denominacion":"Facultat de Filologia (167)","lineas":"12,30,31,71,80,81","proximas_llegadas":"http://www.emtvalencia.es/QR.php?sec=est&p=167"}},{"type":"Feature","id":3812168,"geometry":{"type":"Point","coordinates":[-0.40419906111391579,39.48710339383917]},"properties":{"gid":3812168,"id_parada":1654,"codvia":80950,"numportal":"109 (DAVANT)","suprimida":0,"denominacion":"Mestre Rodrigo - la Safor (1654)","lineas":"67","proximas_llegadas":"http://www.emtvalencia.es/QR.php?sec=est&p=1654"}},{"type":"Feature","id":3812169,"geometry":{"type":"Point","coordinates":[-0.3601325706808689,39.461807293644213]},"properties":{"gid":3812169,"id_parada":1663,"codvia":1710,"numportal":"6 (DAVANT)","suprimida":0,"denominacion":"Alcalde Reig - Pont del Regne (1663)","lineas":"15,24,25,95","proximas_llegadas":"http://www.emtvalencia.es/QR.php?sec=est&p=1663"}},{"type":"Feature","id":3812200,"geometry":{"type":"Point","coordinates":[-0.38356725372324885,39.470921168887536]},"properties":{"gid":3812200,"id_parada":1766,"codvia":35100,"numportal":"34","suprimida":0,"denominacion":"Guillem de Castro - Comissaria de policia (1766)","lineas":"11,28,C1","proximas_llegadas":"http://www.emtvalencia.es/QR.php?sec=est&p=1766"}},{"type":"Feature","id":3812201,"geometry":{"type":"Point","coordinates":[-0.39331076886115512,39.452234043907012]},"properties":{"gid":3812201,"id_parada":1733,"codvia":32790,"numportal":"92 DUP","suprimida":0,"denominacion":"Hospital Dr. Peset (1733)","lineas":"9,N6","proximas_llegadas":"http://www.emtvalencia.es/QR.php?sec=est&p=1733"}},{"type":"Feature","id":3812202,"geometry":{"type":"Point","coordinates":[-0.34589115385176905,39.457428925943553]},"properties":{"gid":3812202,"id_parada":1759,"codvia":47790,"numportal":"24 ACC.","suprimida":0,"denominacion":"Menorca -  Centre Comercial (1759)","lineas":"94,99,N9","proximas_llegadas":"http://www.emtvalencia.es/QR.php?sec=est&p=1759"}},{"type":"Feature","id":3812203,"geometry":{"type":"Point","coordinates":[-0.39289984344593626,39.452448958041572]},"properties":{"gid":3812203,"id_parada":1931,"codvia":32790,"numportal":"99","suprimida":0,"denominacion":"Hospital Dr. Peset (1931)","lineas":"9","proximas_llegadas":"http://www.emtvalencia.es/QR.php?sec=est&p=1931"}},{"type":"Feature","id":3812204,"geometry":{"type":"Point","coordinates":[-0.33460886071252882,39.448538736294843]},"properties":{"gid":3812204,"id_parada":1980,"codvia":47430,"numportal":"128","suprimida":0,"denominacion":"Major de Natzaret - Castell de Pop (1980)","lineas":"30,4,95,N8","proximas_llegadas":"http://www.emtvalencia.es/QR.php?sec=est&p=1980"}},{"type":"Feature","id":3812205,"geometry":{"type":"Point","coordinates":[-0.33313319494008886,39.448453670722252]},"properties":{"gid":3812205,"id_parada":1981,"codvia":6180,"numportal":"3 (DAVANT)","suprimida":0,"denominacion":"Aras de los Olmos - Castell de Pop (1981)","lineas":"30,4,95,N8","proximas_llegadas":"http://www.emtvalencia.es/QR.php?sec=est&p=1981"}},{"type":"Feature","id":3812206,"geometry":{"type":"Point","coordinates":[-0.36147547089552268,39.492258309919741]},"properties":{"gid":3812206,"id_parada":1990,"codvia":2250,"numportal":"41","suprimida":0,"denominacion":"Estadi Ciutat de València (1990)","lineas":"70","proximas_llegadas":"http://www.emtvalencia.es/QR.php?sec=est&p=1990"}},{"type":"Feature","id":3812207,"geometry":{"type":"Point","coordinates":[-0.4147600227482523,39.469147645212445]},"properties":{"gid":3812207,"id_parada":2004,"codvia":18390,"numportal":"99 (VIA SERV.)","suprimida":0,"denominacion":"Cid (via servici) - Alejandro Volta (2004)","lineas":"71","proximas_llegadas":"http://www.emtvalencia.es/QR.php?sec=est&p=2004"}},{"type":"Feature","id":3812208,"geometry":{"type":"Point","coordinates":[-0.3305380255434382,39.482771422307145]},"properties":{"gid":3812208,"id_parada":1773,"codvia":81176,"numportal":"79 ACC","suprimida":0,"denominacion":"Doctor Álvaro López - Illa de Hierro (1773)","lineas":"99","proximas_llegadas":"http://www.emtvalencia.es/QR.php?sec=est&p=1773"}},{"type":"Feature","id":3812209,"geometry":{"type":"Point","coordinates":[-0.33102719024103866,39.480566937373261]},"properties":{"gid":3812209,"id_parada":1774,"codvia":81176,"numportal":"S/N (ESQUINA VTE.LA RODA)","suprimida":0,"denominacion":"Doctor Álvaro López - Vicent La Roda (1774)","lineas":"99","proximas_llegadas":"http://www.emtvalencia.es/QR.php?sec=est&p=1774"}},{"type":"Feature","id":3812210,"geometry":{"type":"Point","coordinates":[-0.38595421453363876,39.459732341925736]},"properties":{"gid":3812210,"id_parada":1783,"codvia":74400,"numportal":"5","suprimida":0,"denominacion":"Uruguai (imparell) - Jeroni Munyós (1783)","lineas":"10,9","proximas_llegadas":"http://www.emtvalencia.es/QR.php?sec=est&p=1783"}},{"type":"Feature","id":3812267,"geometry":{"type":"Point","coordinates":[-0.35315526574421224,39.452986444298311]},"properties":{"gid":3812267,"id_parada":2235,"codvia":81612,"numportal":"S/N (C.C.SALER)","suprimida":0,"denominacion":"Actor Antonio Ferrandis - Centre Comercial (2235)","lineas":"99","proximas_llegadas":"http://www.emtvalencia.es/QR.php?sec=est&p=2235"}},{"type":"Feature","id":3812268,"geometry":{"type":"Point","coordinates":[-0.35813149025911345,39.450867115013878]},"properties":{"gid":3812268,"id_parada":2236,"codvia":81612,"numportal":"4","suprimida":0,"denominacion":"Actor Antonio Ferrandis (parell) - Amado Granell Mesado (2236)","lineas":"99","proximas_llegadas":"http://www.emtvalencia.es/QR.php?sec=est&p=2236"}},{"type":"Feature","id":3812269,"geometry":{"type":"Point","coordinates":[-0.35793831704752188,39.450475679023533]},"properties":{"gid":3812269,"id_parada":2241,"codvia":81612,"numportal":"4 (DAVANT)","suprimida":0,"denominacion":"Actor Antonio Ferrandis (imparell) - Amado Granell Mesado (2241)","lineas":"99","proximas_llegadas":"http://www.emtvalencia.es/QR.php?sec=est&p=2241"}},{"type":"Feature","id":3812270,"geometry":{"type":"Point","coordinates":[-0.34181066946538025,39.457843933244504]},"properties":{"gid":3812270,"id_parada":2324,"codvia":30960,"numportal":"71 (DAVANT)","suprimida":0,"denominacion":"França - Camí Fondo del Grao (2324)","lineas":"94","proximas_llegadas":"http://www.emtvalencia.es/QR.php?sec=est&p=2324"}},{"type":"Feature","id":3812272,"geometry":{"type":"Point","coordinates":[-0.33628592563037341,39.449626687553192]},"properties":{"gid":3812272,"id_parada":2047,"codvia":null,"numportal":"2 ACC.","suprimida":0,"denominacion":"Barraques del Figuero - Ignacio Zuloaga (2047)","lineas":"15,95","proximas_llegadas":"http://www.emtvalencia.es/QR.php?sec=est&p=2047"}},{"type":"Feature","id":3812273,"geometry":{"type":"Point","coordinates":[-0.33622864232709648,39.449761001654117]},"properties":{"gid":3812273,"id_parada":2048,"codvia":null,"numportal":"S/N","suprimida":0,"denominacion":"Barraques del Figuero - Cocoters (2048)","lineas":"15,95","proximas_llegadas":"http://www.emtvalencia.es/QR.php?sec=est&p=2048"}},{"type":"Feature","id":3812274,"geometry":{"type":"Point","coordinates":[-0.40385580555859729,39.480987584342451]},"properties":{"gid":3812274,"id_parada":2069,"codvia":81637,"numportal":"1","suprimida":0,"denominacion":"Terrateig - Poeta Rafael Alberti (2069)","lineas":"67","proximas_llegadas":"http://www.emtvalencia.es/QR.php?sec=est&p=2069"}},{"type":"Feature","id":3812319,"geometry":{"type":"Point","coordinates":[-0.36958087250700239,39.447553510395757]},"properties":{"gid":3812319,"id_parada":2157,"codvia":7590,"numportal":"104 ACC","suprimida":0,"denominacion":"Ausiàs March - Pianista Martínez Carrasco (2157)","lineas":"6","proximas_llegadas":"http://www.emtvalencia.es/QR.php?sec=est&p=2157"}},{"type":"Feature","id":3812320,"geometry":{"type":"Point","coordinates":[-0.37329212464293254,39.445484342739356]},"properties":{"gid":3812320,"id_parada":2158,"codvia":81628,"numportal":"S/N VIA SERVICIO","suprimida":0,"denominacion":"La Barraca (2158)","lineas":"6","proximas_llegadas":"http://www.emtvalencia.es/QR.php?sec=est&p=2158"}},{"type":"Feature","id":3812321,"geometry":{"type":"Point","coordinates":[-0.41778512006137675,39.499092465922082]},"properties":{"gid":3812321,"id_parada":2161,"codvia":null,"numportal":"4","suprimida":0,"denominacion":"Mercat de Benimàmet (2161)","lineas":"62,N3","proximas_llegadas":"http://www.emtvalencia.es/QR.php?sec=est&p=2161"}},{"type":"Feature","id":3812322,"geometry":{"type":"Point","coordinates":[-0.28581504609478225,39.291689337894837]},"properties":{"gid":3812322,"id_parada":2182,"codvia":32880,"numportal":"FTE. 197","suprimida":0,"denominacion":"Gavines - Entrada Paridera (2182)","lineas":"25","proximas_llegadas":"http://www.emtvalencia.es/QR.php?sec=est&p=2182"}},{"type":"Feature","id":3812323,"geometry":{"type":"Point","coordinates":[-0.35650129946418085,39.475384095003967]},"properties":{"gid":3812323,"id_parada":2213,"codvia":81310,"numportal":"35","suprimida":0,"denominacion":"Estadi de Mestalla  (2213)","lineas":"10,12,80,93,N1","proximas_llegadas":"http://www.emtvalencia.es/QR.php?sec=est&p=2213"}},{"type":"Feature","id":3812346,"geometry":{"type":"Point","coordinates":[-0.40459790877817314,39.47494661729236]},"properties":{"gid":3812346,"id_parada":2093,"codvia":44850,"numportal":"13","suprimida":0,"denominacion":"Parc de Capçalera (2093)","lineas":"95","proximas_llegadas":"http://www.emtvalencia.es/QR.php?sec=est&p=2093"}},{"type":"Feature","id":3812347,"geometry":{"type":"Point","coordinates":[-0.38681348512954955,39.486370018608675]},"properties":{"gid":3812347,"id_parada":2160,"codvia":12540,"numportal":"S/N","suprimida":0,"denominacion":"Burjassot - Marxalenes (2160)","lineas":"28,94,N10","proximas_llegadas":"http://www.emtvalencia.es/QR.php?sec=est&p=2160"}},{"type":"Feature","id":3812348,"geometry":{"type":"Point","coordinates":[-0.31753944410116147,39.31408599212034]},"properties":{"gid":3812348,"id_parada":2173,"codvia":75570,"numportal":"28","suprimida":0,"denominacion":"Vicent Baldoví - Pintor Martí Girbés (2173)","lineas":"24","proximas_llegadas":"http://www.emtvalencia.es/QR.php?sec=est&p=2173"}},{"type":"Feature","id":3812349,"geometry":{"type":"Point","coordinates":[-0.31783606728338792,39.321451120798763]},"properties":{"gid":3812349,"id_parada":2174,"codvia":75570,"numportal":"S/N FTE CEMENTERIO","suprimida":0,"denominacion":"Cementeri El Palmar (2174)","lineas":"24","proximas_llegadas":"http://www.emtvalencia.es/QR.php?sec=est&p=2174"}},{"type":"Feature","id":3812350,"geometry":{"type":"Point","coordinates":[-0.31791824822806447,39.321440673469837]},"properties":{"gid":3812350,"id_parada":2170,"codvia":75570,"numportal":"S/N CEMENTERIO","suprimida":0,"denominacion":"Cementeri El Palmar (2170)","lineas":"24","proximas_llegadas":"http://www.emtvalencia.es/QR.php?sec=est&p=2170"}},{"type":"Feature","id":3812351,"geometry":{"type":"Point","coordinates":[-0.31955651169482646,39.341462107641483]},"properties":{"gid":3812351,"id_parada":2175,"codvia":42390,"numportal":"S/N CRUCE EL PALMAR","suprimida":0,"denominacion":"Carretera del Palmar - Pinars (2175)","lineas":"24,25","proximas_llegadas":"http://www.emtvalencia.es/QR.php?sec=est&p=2175"}},{"type":"Feature","id":3812352,"geometry":{"type":"Point","coordinates":[-0.30945858270853666,39.323238473941736]},"properties":{"gid":3812352,"id_parada":2195,"codvia":32880,"numportal":"S/N FTE. DEVESA GARDENS","suprimida":0,"denominacion":"Càmping la Devesa (2195)","lineas":"25","proximas_llegadas":"http://www.emtvalencia.es/QR.php?sec=est&p=2195"}},{"type":"Feature","id":3811459,"geometry":{"type":"Point","coordinates":[-0.36284126148885215,39.486671691148537]},"properties":{"gid":3811459,"id_parada":1232,"codvia":25380,"numportal":"13","suprimida":0,"denominacion":"Dolores Marqués - Reverend José María Pinazo (1232)","lineas":"12,70","proximas_llegadas":"http://www.emtvalencia.es/QR.php?sec=est&p=1232"}},{"type":"Feature","id":3811498,"geometry":{"type":"Point","coordinates":[-0.35936182500839153,39.493031846348579]},"properties":{"gid":3811498,"id_parada":1989,"codvia":2250,"numportal":"47 ACC (DAVANT)","suprimida":0,"denominacion":"Centre Salut Alfahuir (1989)","lineas":"70","proximas_llegadas":"http://www.emtvalencia.es/QR.php?sec=est&p=1989"}},{"type":"Feature","id":3811579,"geometry":{"type":"Point","coordinates":[-0.30942388128242548,39.322966449920337]},"properties":{"gid":3811579,"id_parada":2176,"codvia":32880,"numportal":"S/N DEVESA GARDEN","suprimida":0,"denominacion":"Càmping la Devesa (2176)","lineas":"25","proximas_llegadas":"http://www.emtvalencia.es/QR.php?sec=est&p=2176"}},{"type":"Feature","id":3811723,"geometry":{"type":"Point","coordinates":[-0.41634854955580486,39.498760924685151]},"properties":{"gid":3811723,"id_parada":382,"codvia":null,"numportal":"25","suprimida":0,"denominacion":"Mossén Miguel Tarin (imparell) - Miquel Agraït (382)","lineas":"62","proximas_llegadas":"http://www.emtvalencia.es/QR.php?sec=est&p=382"}},{"type":"Feature","id":3811803,"geometry":{"type":"Point","coordinates":[-0.38394831124876272,39.475014204388337]},"properties":{"gid":3811803,"id_parada":793,"codvia":35100,"numportal":"78","suprimida":0,"denominacion":"Torres de Quart (793)","lineas":"28,C1","proximas_llegadas":"http://www.emtvalencia.es/QR.php?sec=est&p=793"}},{"type":"Feature","id":3811895,"geometry":{"type":"Point","coordinates":[-0.36964100377932818,39.450000593135037]},"properties":{"gid":3811895,"id_parada":630,"codvia":31920,"numportal":"114 ACC","suprimida":0,"denominacion":"Fonteta Sant Lluís - Ebenista Caselles (630)","lineas":"13,7","proximas_llegadas":"http://www.emtvalencia.es/QR.php?sec=est&p=630"}},{"type":"Feature","id":3812012,"geometry":{"type":"Point","coordinates":[-0.37640522211784355,39.432342422066313]},"properties":{"gid":3812012,"id_parada":585,"codvia":null,"numportal":"32","suprimida":0,"denominacion":"Forn d'Alcedo (585)","lineas":"14,9","proximas_llegadas":"http://www.emtvalencia.es/QR.php?sec=est&p=585"}},{"type":"Feature","id":3812056,"geometry":{"type":"Point","coordinates":[-0.35266328758588944,39.46577323434218]},"properties":{"gid":3812056,"id_parada":1617,"codvia":25680,"numportal":"104","suprimida":0,"denominacion":"Port - Riu Escalona (1617)","lineas":"4,92,N8","proximas_llegadas":"http://www.emtvalencia.es/QR.php?sec=est&p=1617"}},{"type":"Feature","id":3812108,"geometry":{"type":"Point","coordinates":[-0.36484109860663683,39.474004156987618]},"properties":{"gid":3812108,"id_parada":1020,"codvia":58710,"numportal":"14 (DAVANT JARDÍ VIA CENTRAL)","suprimida":0,"denominacion":"Albereda (1020)","lineas":"11,16,26,6,70,94,95,N10","proximas_llegadas":"http://www.emtvalencia.es/QR.php?sec=est&p=1020"}},{"type":"Feature","id":3812193,"geometry":{"type":"Point","coordinates":[-0.37822075323830884,39.460564353688987]},"properties":{"gid":3812193,"id_parada":2128,"codvia":30210,"numportal":"11","suprimida":0,"denominacion":"Filipines - Puerto Rico (2128)","lineas":"8","proximas_llegadas":"http://www.emtvalencia.es/QR.php?sec=est&p=2128"}},{"type":"Feature","id":3812194,"geometry":{"type":"Point","coordinates":[-0.36031709198128131,39.481812231063209]},"properties":{"gid":3812194,"id_parada":1694,"codvia":61410,"numportal":"96","suprimida":0,"denominacion":"Primat Reig - Dr. Gómez Ferrer (1694)","lineas":"90,98","proximas_llegadas":"http://www.emtvalencia.es/QR.php?sec=est&p=1694"}},{"type":"Feature","id":3812195,"geometry":{"type":"Point","coordinates":[-0.3846089907321853,39.459078531401786]},"properties":{"gid":3812195,"id_parada":1696,"codvia":33900,"numportal":"28","suprimida":0,"denominacion":"Jesús (1696)","lineas":"64","proximas_llegadas":"http://www.emtvalencia.es/QR.php?sec=est&p=1696"}},{"type":"Feature","id":3812196,"geometry":{"type":"Point","coordinates":[-0.38802876056081637,39.474112661914219]},"properties":{"gid":3812196,"id_parada":1716,"codvia":30000,"numportal":"53","suprimida":0,"denominacion":"Ferran el Catòlic - S. Ignacio de Loyola (1716)","lineas":"60,62,73","proximas_llegadas":"http://www.emtvalencia.es/QR.php?sec=est&p=1716"}},{"type":"Feature","id":3812197,"geometry":{"type":"Point","coordinates":[-0.32963892033215358,39.479763229197054]},"properties":{"gid":3812197,"id_parada":1742,"codvia":9420,"numportal":"40","suprimida":0,"denominacion":"Beat Juan Grande - Vicent la Roda (1742)","lineas":"92,99","proximas_llegadas":"http://www.emtvalencia.es/QR.php?sec=est&p=1742"}},{"type":"Feature","id":3812198,"geometry":{"type":"Point","coordinates":[-0.35026112817511679,39.45757031587636]},"properties":{"gid":3812198,"id_parada":1745,"codvia":58710,"numportal":"S/N (DAVANT 47)","suprimida":0,"denominacion":"Albereda (riu) - Museu de les Ciències (1745)","lineas":"94","proximas_llegadas":"http://www.emtvalencia.es/QR.php?sec=est&p=1745"}},{"type":"Feature","id":3812199,"geometry":{"type":"Point","coordinates":[-0.33466146865214891,39.470910708861126]},"properties":{"gid":3812199,"id_parada":1755,"codvia":45810,"numportal":"17","suprimida":0,"denominacion":"Marí Blas de Lezo(imparell) -Estació Cabanyal (1755)","lineas":"31,99","proximas_llegadas":"http://www.emtvalencia.es/QR.php?sec=est&p=1755"}},{"type":"Feature","id":3812214,"geometry":{"type":"Point","coordinates":[-0.38484224868522865,39.497039690093246]},"properties":{"gid":3812214,"id_parada":1824,"codvia":40200,"numportal":"51 ACC","suprimida":0,"denominacion":"Benicalap (1824)","lineas":"64","proximas_llegadas":"http://www.emtvalencia.es/QR.php?sec=est&p=1824"}},{"type":"Feature","id":3812215,"geometry":{"type":"Point","coordinates":[-0.38409753143386288,39.495021662398372]},"properties":{"gid":3812215,"id_parada":1825,"codvia":40200,"numportal":"45 ACC","suprimida":0,"denominacion":"Joan XXIII - Federico Alcacer Aguilar (1825)","lineas":"64","proximas_llegadas":"http://www.emtvalencia.es/QR.php?sec=est&p=1825"}},{"type":"Feature","id":3812238,"geometry":{"type":"Point","coordinates":[-0.3477846180060451,39.46106539902749]},"properties":{"gid":3812238,"id_parada":1952,"codvia":58830,"numportal":"24","suprimida":0,"denominacion":"Pintor Maella - Vicent Vidal (Cronista) (1952)","lineas":"35","proximas_llegadas":"http://www.emtvalencia.es/QR.php?sec=est&p=1952"}},{"type":"Feature","id":3812239,"geometry":{"type":"Point","coordinates":[-0.34853087381868597,39.459003752434306]},"properties":{"gid":3812239,"id_parada":1953,"codvia":58830,"numportal":"30","suprimida":0,"denominacion":"Pintor Maella (parell) - França (1953)","lineas":"35","proximas_llegadas":"http://www.emtvalencia.es/QR.php?sec=est&p=1953"}},{"type":"Feature","id":3812240,"geometry":{"type":"Point","coordinates":[-0.34817888287840704,39.457566164313391]},"properties":{"gid":3812240,"id_parada":1954,"codvia":58830,"numportal":"37 (DAVANT)","suprimida":0,"denominacion":"Pintor Maella - Luis Bolinches Compañ (1954)","lineas":"35","proximas_llegadas":"http://www.emtvalencia.es/QR.php?sec=est&p=1954"}},{"type":"Feature","id":3812241,"geometry":{"type":"Point","coordinates":[-0.36254437364492093,39.491017136432369]},"properties":{"gid":3812241,"id_parada":1988,"codvia":2250,"numportal":"42","suprimida":0,"denominacion":"Estadi Ciutat de València (1988)","lineas":"70","proximas_llegadas":"http://www.emtvalencia.es/QR.php?sec=est&p=1988"}},{"type":"Feature","id":3812242,"geometry":{"type":"Point","coordinates":[-0.40560117447651628,39.466965623190447]},"properties":{"gid":3812242,"id_parada":2009,"codvia":73920,"numportal":"31","suprimida":0,"denominacion":"Tres Creus - Music Ayllón (2009)","lineas":"70","proximas_llegadas":"http://www.emtvalencia.es/QR.php?sec=est&p=2009"}},{"type":"Feature","id":3812243,"geometry":{"type":"Point","coordinates":[-0.40878651711252634,39.463113560942595]},"properties":{"gid":3812243,"id_parada":1999,"codvia":73950,"numportal":"149 ACC.","suprimida":0,"denominacion":"Tres Forques - Casa Misericòrdia (1999)","lineas":"70","proximas_llegadas":"http://www.emtvalencia.es/QR.php?sec=est&p=1999"}},{"type":"Feature","id":3812280,"geometry":{"type":"Point","coordinates":[-0.33150693069694964,39.388158262641376]},"properties":{"gid":3812280,"id_parada":2201,"codvia":46770,"numportal":"S/N FTE. CAMPING VALENCIA","suprimida":0,"denominacion":"Càmping València Saler (2201)","lineas":"24,25","proximas_llegadas":"http://www.emtvalencia.es/QR.php?sec=est&p=2201"}},{"type":"Feature","id":3812281,"geometry":{"type":"Point","coordinates":[-0.3316811898004095,39.388082470561329]},"properties":{"gid":3812281,"id_parada":2164,"codvia":46770,"numportal":"S/N CAMPING VALENCIA","suprimida":0,"denominacion":"Càmping València Saler (2164)","lineas":"24,25","proximas_llegadas":"http://www.emtvalencia.es/QR.php?sec=est&p=2164"}},{"type":"Feature","id":3812282,"geometry":{"type":"Point","coordinates":[-0.33246890172104626,39.39637147123203]},"properties":{"gid":3812282,"id_parada":2163,"codvia":46770,"numportal":"S/N CAMPING COLL VERT","suprimida":0,"denominacion":"Càmping Coll Vert (2163)","lineas":"24,25","proximas_llegadas":"http://www.emtvalencia.es/QR.php?sec=est&p=2163"}},{"type":"Feature","id":3812284,"geometry":{"type":"Point","coordinates":[-0.32823138105851363,39.485286053465956]},"properties":{"gid":3812284,"id_parada":2114,"codvia":null,"numportal":"S/N","suprimida":0,"denominacion":"Blasco Ibáñez - Arnau de Vilanova (2114)","lineas":"31","proximas_llegadas":"http://www.emtvalencia.es/QR.php?sec=est&p=2114"}},{"type":"Feature","id":3812289,"geometry":{"type":"Point","coordinates":[-0.27707724454985722,39.274072301819764]},"properties":{"gid":3812289,"id_parada":2186,"codvia":null,"numportal":"S/N SUPERMERCADO","suprimida":0,"denominacion":"El Perelló (2186)","lineas":"25","proximas_llegadas":"http://www.emtvalencia.es/QR.php?sec=est&p=2186"}},{"type":"Feature","id":3812292,"geometry":{"type":"Point","coordinates":[-0.36774638868634496,39.471674729012491]},"properties":{"gid":3812292,"id_parada":2250,"codvia":52350,"numportal":"2","suprimida":0,"denominacion":"Porta de la Mar (2250)","lineas":"10,13,4,94,95,N8","proximas_llegadas":"http://www.emtvalencia.es/QR.php?sec=est&p=2250"}},{"type":"Feature","id":3812293,"geometry":{"type":"Point","coordinates":[-0.36774084868751961,39.471821644888635]},"properties":{"gid":3812293,"id_parada":2251,"codvia":52350,"numportal":"1","suprimida":0,"denominacion":"Porta de la Mar (2251)","lineas":"10,24,25,4,N1,N8","proximas_llegadas":"http://www.emtvalencia.es/QR.php?sec=est&p=2251"}},{"type":"Feature","id":3812294,"geometry":{"type":"Point","coordinates":[-0.36834824393505738,39.472403747576045]},"properties":{"gid":3812294,"id_parada":2253,"codvia":46140,"numportal":"6","suprimida":0,"denominacion":"Porta de la Mar (2253)","lineas":"13,8","proximas_llegadas":"http://www.emtvalencia.es/QR.php?sec=est&p=2253"}},{"type":"Feature","id":3812295,"geometry":{"type":"Point","coordinates":[-0.36942658911114679,39.472203366429191]},"properties":{"gid":3812295,"id_parada":2256,"codvia":55320,"numportal":"1 (DAVANT)","suprimida":0,"denominacion":"Palau de Justícia (2256)","lineas":"4,C1","proximas_llegadas":"http://www.emtvalencia.es/QR.php?sec=est&p=2256"}},{"type":"Feature","id":3812334,"geometry":{"type":"Point","coordinates":[-0.40912211487271433,39.465815689002866]},"properties":{"gid":3812334,"id_parada":2325,"codvia":28620,"numportal":"7 (DAVANT)","suprimida":0,"denominacion":"Escultor Salzillo - Lluís Fenollet (2325)","lineas":"73","proximas_llegadas":"http://www.emtvalencia.es/QR.php?sec=est&p=2325"}},{"type":"Feature","id":3812335,"geometry":{"type":"Point","coordinates":[-0.38497613370518974,39.427867605308798]},"properties":{"gid":3812335,"id_parada":2337,"codvia":null,"numportal":"83","suprimida":0,"denominacion":"País Valencià - Colón (2337)","lineas":"9","proximas_llegadas":"http://www.emtvalencia.es/QR.php?sec=est&p=2337"}},{"type":"Feature","id":3812336,"geometry":{"type":"Point","coordinates":[-0.38091926274069449,39.42635840378567]},"properties":{"gid":3812336,"id_parada":2339,"codvia":null,"numportal":"47 (DAVANT)","suprimida":0,"denominacion":"País Valencià - Salvador Giner (2339)","lineas":"9","proximas_llegadas":"http://www.emtvalencia.es/QR.php?sec=est&p=2339"}},{"type":"Feature","id":3812337,"geometry":{"type":"Point","coordinates":[-0.32463156669990606,39.470481867140712]},"properties":{"gid":3812337,"id_parada":2342,"codvia":56250,"numportal":"35 (DAVANT)","suprimida":0,"denominacion":"Passeig Marítim - Pescadors (2342)","lineas":"32","proximas_llegadas":"http://www.emtvalencia.es/QR.php?sec=est&p=2342"}},{"type":"Feature","id":3812338,"geometry":{"type":"Point","coordinates":[-0.35036470025827715,39.452904489979694]},"properties":{"gid":3812338,"id_parada":2043,"codvia":81672,"numportal":"S/N","suprimida":0,"denominacion":"Àgora (2043)","lineas":"15,95","proximas_llegadas":"http://www.emtvalencia.es/QR.php?sec=est&p=2043"}},{"type":"Feature","id":3812339,"geometry":{"type":"Point","coordinates":[-0.34771225953663898,39.452089360320066]},"properties":{"gid":3812339,"id_parada":2044,"codvia":81672,"numportal":"S/N","suprimida":0,"denominacion":"Oceanogràfic (2044)","lineas":"15,95","proximas_llegadas":"http://www.emtvalencia.es/QR.php?sec=est&p=2044"}},{"type":"Feature","id":3812340,"geometry":{"type":"Point","coordinates":[-0.34741910950512089,39.452231747363676]},"properties":{"gid":3812340,"id_parada":2051,"codvia":81672,"numportal":"S/N","suprimida":0,"denominacion":"Oceanogràfic (2051)","lineas":"15,95","proximas_llegadas":"http://www.emtvalencia.es/QR.php?sec=est&p=2051"}},{"type":"Feature","id":3812341,"geometry":{"type":"Point","coordinates":[-0.35676399790633556,39.456745230696697]},"properties":{"gid":3812341,"id_parada":2041,"codvia":81472,"numportal":"INST.OBRER (PAR)","suprimida":0,"denominacion":"Les Arts (2041)","lineas":"13,15,24,25,95","proximas_llegadas":"http://www.emtvalencia.es/QR.php?sec=est&p=2041"}},{"type":"Feature","id":3812342,"geometry":{"type":"Point","coordinates":[-0.35434403801281883,39.454617255301471]},"properties":{"gid":3812342,"id_parada":2042,"codvia":81472,"numportal":"14","suprimida":0,"denominacion":"Ciutat de la Justícia (2042)","lineas":"15,24,25,35,95","proximas_llegadas":"http://www.emtvalencia.es/QR.php?sec=est&p=2042"}},{"type":"Feature","id":3812343,"geometry":{"type":"Point","coordinates":[-0.35617274763919121,39.457090331857607]},"properties":{"gid":3812343,"id_parada":2054,"codvia":81472,"numportal":"DAVANT.I.OBRER","suprimida":0,"denominacion":"Les Arts (2054)","lineas":"13,15,24,25,95","proximas_llegadas":"http://www.emtvalencia.es/QR.php?sec=est&p=2054"}},{"type":"Feature","id":3811272,"geometry":{"type":"Point","coordinates":[-0.39260707639950082,39.430314335445857]},"properties":{"gid":3811272,"id_parada":1413,"codvia":63090,"numportal":"101-103","suprimida":0,"denominacion":"Real de Madrid - Entrada Pinet (1413)","lineas":"27,9,N6","proximas_llegadas":"http://www.emtvalencia.es/QR.php?sec=est&p=1413"}},{"type":"Feature","id":3811416,"geometry":{"type":"Point","coordinates":[-0.32874542543759139,39.463739758466197]},"properties":{"gid":3811416,"id_parada":1627,"codvia":24360,"numportal":"4","suprimida":0,"denominacion":"Dr. Lluch - Setmana Santa Marinera (1627)","lineas":"19,92,N9","proximas_llegadas":"http://www.emtvalencia.es/QR.php?sec=est&p=1627"}},{"type":"Feature","id":3811417,"geometry":{"type":"Point","coordinates":[-0.32797464817305949,39.469400802390339]},"properties":{"gid":3811417,"id_parada":11,"codvia":24360,"numportal":"157 (DAVANT)","suprimida":0,"denominacion":"Dr. Lluch (11)","lineas":"19,92","proximas_llegadas":"http://www.emtvalencia.es/QR.php?sec=est&p=11"}},{"type":"Feature","id":3811418,"geometry":{"type":"Point","coordinates":[-0.32650866173222326,39.476209030996401]},"properties":{"gid":3811418,"id_parada":14,"codvia":17820,"numportal":"26","suprimida":0,"denominacion":"Cavite - Riu Tajo (14)","lineas":"19,31,N1","proximas_llegadas":"http://www.emtvalencia.es/QR.php?sec=est&p=14"}},{"type":"Feature","id":3811419,"geometry":{"type":"Point","coordinates":[-0.32785260446836928,39.476248925038618]},"properties":{"gid":3811419,"id_parada":26,"codvia":44550,"numportal":"21","suprimida":0,"denominacion":"la Malva-rosa - Riu Tajo (26)","lineas":"19,31,92,N1","proximas_llegadas":"http://www.emtvalencia.es/QR.php?sec=est&p=26"}},{"type":"Feature","id":3811420,"geometry":{"type":"Point","coordinates":[-0.33084476316457057,39.456353085649624]},"properties":{"gid":3811420,"id_parada":59,"codvia":44960,"numportal":"13","suprimida":0,"denominacion":"Manuel Soto Enginyer - Comandància Marina (59)","lineas":"30,4,95,N8","proximas_llegadas":"http://www.emtvalencia.es/QR.php?sec=est&p=59"}},{"type":"Feature","id":3811421,"geometry":{"type":"Point","coordinates":[-0.34858313350798925,39.474045029375766]},"properties":{"gid":3811421,"id_parada":116,"codvia":900,"numportal":"104 (JARDÍ)","suprimida":0,"denominacion":"Blasco Ibáñez - Dr. Manuel Candela (116)","lineas":"30,31,71,81,N1","proximas_llegadas":"http://www.emtvalencia.es/QR.php?sec=est&p=116"}},{"type":"Feature","id":3811422,"geometry":{"type":"Point","coordinates":[-0.34248106950761237,39.472942156142324]},"properties":{"gid":3811422,"id_parada":125,"codvia":900,"numportal":"127","suprimida":0,"denominacion":"Blasco Ibáñez - Actor Enrique Rambal (125)","lineas":"31,81,N1","proximas_llegadas":"http://www.emtvalencia.es/QR.php?sec=est&p=125"}},{"type":"Feature","id":3811423,"geometry":{"type":"Point","coordinates":[-0.34296093891414242,39.47204948876648]},"properties":{"gid":3811423,"id_parada":128,"codvia":900,"numportal":"158","suprimida":0,"denominacion":"Blasco Ibáñez - Músic Ginés (128)","lineas":"31,81,N1","proximas_llegadas":"http://www.emtvalencia.es/QR.php?sec=est&p=128"}},{"type":"Feature","id":3811424,"geometry":{"type":"Point","coordinates":[-0.34907035242266354,39.46978606620381]},"properties":{"gid":3811424,"id_parada":140,"codvia":70620,"numportal":"56","suprimida":0,"denominacion":"Amistat (140)","lineas":"32","proximas_llegadas":"http://www.emtvalencia.es/QR.php?sec=est&p=140"}},{"type":"Feature","id":3811425,"geometry":{"type":"Point","coordinates":[-0.36551211703512071,39.479657026052109]},"properties":{"gid":3811425,"id_parada":162,"codvia":900,"numportal":"7","suprimida":0,"denominacion":"Blasco Ibáñez - Jaume Roig (162)","lineas":"31,71,79,81","proximas_llegadas":"http://www.emtvalencia.es/QR.php?sec=est&p=162"}},{"type":"Feature","id":3811426,"geometry":{"type":"Point","coordinates":[-0.35692995346658668,39.476161365025774]},"properties":{"gid":3811426,"id_parada":168,"codvia":900,"numportal":"50 (COPUT)","suprimida":0,"denominacion":"Blasco Ibáñez - Suècia (168)","lineas":"30,31,71,81","proximas_llegadas":"http://www.emtvalencia.es/QR.php?sec=est&p=168"}},{"type":"Feature","id":3811427,"geometry":{"type":"Point","coordinates":[-0.36420459609600464,39.483999680867718]},"properties":{"gid":3811427,"id_parada":171,"codvia":17790,"numportal":"7","suprimida":0,"denominacion":"Cavanilles - Primat Reig (171)","lineas":"12,70,N2","proximas_llegadas":"http://www.emtvalencia.es/QR.php?sec=est&p=171"}},{"type":"Feature","id":3811485,"geometry":{"type":"Point","coordinates":[-0.38003054518932639,39.485775245879779]},"properties":{"gid":3811485,"id_parada":1809,"codvia":63780,"numportal":"31","suprimida":0,"denominacion":"Reus (1809)","lineas":"98,N10","proximas_llegadas":"http://www.emtvalencia.es/QR.php?sec=est&p=1809"}},{"type":"Feature","id":3811620,"geometry":{"type":"Point","coordinates":[-0.36587028915360015,39.470684296399597]},"properties":{"gid":3811620,"id_parada":2206,"codvia":52350,"numportal":"24","suprimida":0,"denominacion":"Pl. Amèrica - Navarro Reverter (2206)","lineas":"10,4,94","proximas_llegadas":"http://www.emtvalencia.es/QR.php?sec=est&p=2206"}},{"type":"Feature","id":3811929,"geometry":{"type":"Point","coordinates":[-0.39548686555755985,39.449110308592438]},"properties":{"gid":3811929,"id_parada":563,"codvia":32790,"numportal":"159 (DAVANT)","suprimida":0,"denominacion":"Crematori Municipal (563)","lineas":"10","proximas_llegadas":"http://www.emtvalencia.es/QR.php?sec=est&p=563"}},{"type":"Feature","id":3812211,"geometry":{"type":"Point","coordinates":[-0.35590183756150034,39.471848813466174]},"properties":{"gid":3812211,"id_parada":1802,"codvia":28020,"numportal":"10 ACC","suprimida":0,"denominacion":"Centre de Salut Xile (1802)","lineas":"32","proximas_llegadas":"http://www.emtvalencia.es/QR.php?sec=est&p=1802"}},{"type":"Feature","id":3812212,"geometry":{"type":"Point","coordinates":[-0.36781283086423233,39.469262203892072]},"properties":{"gid":3812212,"id_parada":1805,"codvia":20220,"numportal":"27","suprimida":0,"denominacion":"Mercat de Colón (1805)","lineas":"13,40","proximas_llegadas":"http://www.emtvalencia.es/QR.php?sec=est&p=1805"}},{"type":"Feature","id":3812213,"geometry":{"type":"Point","coordinates":[-0.36712023571018154,39.466013143559437]},"properties":{"gid":3812213,"id_parada":1804,"codvia":38430,"numportal":"18","suprimida":0,"denominacion":"Joaquín Costa - Comte d'Altea (1804)","lineas":"40","proximas_llegadas":"http://www.emtvalencia.es/QR.php?sec=est&p=1804"}},{"type":"Feature","id":3812353,"geometry":{"type":"Point","coordinates":[-0.28915235494141944,39.297623288984489]},"properties":{"gid":3812353,"id_parada":2192,"codvia":32880,"numportal":"145","suprimida":0,"denominacion":"Gavines (imparell) - Platja (2192)","lineas":"25","proximas_llegadas":"http://www.emtvalencia.es/QR.php?sec=est&p=2192"}},{"type":"Feature","id":3812354,"geometry":{"type":"Point","coordinates":[-0.27995271516210568,39.281796902694346]},"properties":{"gid":3812354,"id_parada":2187,"codvia":32880,"numportal":"289","suprimida":0,"denominacion":"Gavines - Bitàcora (2187)","lineas":"25","proximas_llegadas":"http://www.emtvalencia.es/QR.php?sec=est&p=2187"}},{"type":"Feature","id":3812355,"geometry":{"type":"Point","coordinates":[-0.28012684713925662,39.28178947794833]},"properties":{"gid":3812355,"id_parada":2185,"codvia":32880,"numportal":"FTE. 283","suprimida":0,"denominacion":"Gavines - Entrada a la Baixada del Pantà (2185)","lineas":"25","proximas_llegadas":"http://www.emtvalencia.es/QR.php?sec=est&p=2185"}},{"type":"Feature","id":3812356,"geometry":{"type":"Point","coordinates":[-0.34219379890570351,39.430805019861396]},"properties":{"gid":3812356,"id_parada":2207,"codvia":46770,"numportal":"FTE 257","suprimida":0,"denominacion":"Carrera del Riu (parell) - Rotonda Autovia (2207)","lineas":"24,25","proximas_llegadas":"http://www.emtvalencia.es/QR.php?sec=est&p=2207"}},{"type":"Feature","id":3812357,"geometry":{"type":"Point","coordinates":[-0.3737898453544708,39.447976601466131]},"properties":{"gid":3812357,"id_parada":2343,"codvia":22470,"numportal":"87 (DAVANT)","suprimida":0,"denominacion":"Vicent Marco Miranda - Lluís Alcanyís (2343)","lineas":"6","proximas_llegadas":"http://www.emtvalencia.es/QR.php?sec=est&p=2343"}},{"type":"Feature","id":3812358,"geometry":{"type":"Point","coordinates":[-0.40058812334452826,39.454838879568946]},"properties":{"gid":3812358,"id_parada":2245,"codvia":73920,"numportal":"S/N (CARRIL BUS)","suprimida":0,"denominacion":"Tres Creus - Marià de Càvia (2245)","lineas":"99","proximas_llegadas":"http://www.emtvalencia.es/QR.php?sec=est&p=2245"}},{"type":"Feature","id":3812359,"geometry":{"type":"Point","coordinates":[-0.39915337223624281,39.452784331289166]},"properties":{"gid":3812359,"id_parada":2100,"codvia":73920,"numportal":"133 CARRIL BUS (DAVANT)","suprimida":0,"denominacion":"Tres Creus (parell) - Campos Crespo (2100)","lineas":"99","proximas_llegadas":"http://www.emtvalencia.es/QR.php?sec=est&p=2100"}},{"type":"Feature","id":3812360,"geometry":{"type":"Point","coordinates":[-0.40067359389660001,39.463134676018534]},"properties":{"gid":3812360,"id_parada":2267,"codvia":31530,"numportal":"80","suprimida":0,"denominacion":"Fra Juníper Serra - Tres Forques (2267)","lineas":"73","proximas_llegadas":"http://www.emtvalencia.es/QR.php?sec=est&p=2267"}},{"type":"Feature","id":3812361,"geometry":{"type":"Point","coordinates":[-0.37666751215827393,39.452546791360312]},"properties":{"gid":3812361,"id_parada":2273,"codvia":53550,"numportal":"40","suprimida":0,"denominacion":"Oltà - Joaquín Benlloch (2273)","lineas":"18,8","proximas_llegadas":"http://www.emtvalencia.es/QR.php?sec=est&p=2273"}},{"type":"Feature","id":3811231,"geometry":{"type":"Point","coordinates":[-0.4203397972149483,39.502639139327684]},"properties":{"gid":3811231,"id_parada":385,"codvia":null,"numportal":"8","suprimida":0,"denominacion":"Campament - Felipe Valls (385)","lineas":"62","proximas_llegadas":"http://www.emtvalencia.es/QR.php?sec=est&p=385"}},{"type":"Feature","id":3811232,"geometry":{"type":"Point","coordinates":[-0.42912070818249609,39.507159289217675]},"properties":{"gid":3811232,"id_parada":389,"codvia":null,"numportal":"4","suprimida":0,"denominacion":"Alginet - Algemesí (389)","lineas":"62","proximas_llegadas":"http://www.emtvalencia.es/QR.php?sec=est&p=389"}},{"type":"Feature","id":3811233,"geometry":{"type":"Point","coordinates":[-0.42627256216373299,39.501688776036005]},"properties":{"gid":3811233,"id_parada":393,"codvia":null,"numportal":"24 (DAVANT)","suprimida":0,"denominacion":"Velòdrom Lluís Puig (393)","lineas":"62","proximas_llegadas":"http://www.emtvalencia.es/QR.php?sec=est&p=393"}},{"type":"Feature","id":3811234,"geometry":{"type":"Point","coordinates":[-0.38622093551819103,39.52526656567516]},"properties":{"gid":3811234,"id_parada":296,"codvia":10350,"numportal":"S/N","suprimida":0,"denominacion":"Benifaraig a Montcada - Boquera (296)","lineas":"26","proximas_llegadas":"http://www.emtvalencia.es/QR.php?sec=est&p=296"}},{"type":"Feature","id":3811235,"geometry":{"type":"Point","coordinates":[-0.38701143962984547,39.515336364476688]},"properties":{"gid":3811235,"id_parada":299,"codvia":49500,"numportal":"A BORBOTÓ","suprimida":0,"denominacion":"Camí de Montcada (imparell) - Matador (299)","lineas":"26","proximas_llegadas":"http://www.emtvalencia.es/QR.php?sec=est&p=299"}},{"type":"Feature","id":3811236,"geometry":{"type":"Point","coordinates":[-0.37883995715509966,39.483088137647115]},"properties":{"gid":3811236,"id_parada":329,"codvia":62610,"numportal":"ILLETA SAÏDIA","suprimida":0,"denominacion":"Constitució - Pla de la Saïdia (329)","lineas":"16,26,6,N10","proximas_llegadas":"http://www.emtvalencia.es/QR.php?sec=est&p=329"}},{"type":"Feature","id":3811238,"geometry":{"type":"Point","coordinates":[-0.38974725247137332,39.482694775902068]},"properties":{"gid":3811238,"id_parada":361,"codvia":38370,"numportal":"JARDÍ","suprimida":0,"denominacion":"Joaquím Ballester (imparell) - Ricardo Micó (361)","lineas":"98","proximas_llegadas":"http://www.emtvalencia.es/QR.php?sec=est&p=361"}},{"type":"Feature","id":3811239,"geometry":{"type":"Point","coordinates":[-0.40116351275564355,39.475638360918509]},"properties":{"gid":3811239,"id_parada":420,"codvia":44850,"numportal":"S/N","suprimida":0,"denominacion":"Manuel de Falla - Professor López Ibor (420)","lineas":"67,95","proximas_llegadas":"http://www.emtvalencia.es/QR.php?sec=est&p=420"}},{"type":"Feature","id":3811240,"geometry":{"type":"Point","coordinates":[-0.41610763267880158,39.469710651417344]},"properties":{"gid":3811240,"id_parada":488,"codvia":18390,"numportal":"180","suprimida":0,"denominacion":"Avinguda del Cid (488)","lineas":"93,98","proximas_llegadas":"http://www.emtvalencia.es/QR.php?sec=est&p=488"}},{"type":"Feature","id":3811241,"geometry":{"type":"Point","coordinates":[-0.39563308145430132,39.467938605127401]},"properties":{"gid":3811241,"id_parada":508,"codvia":18390,"numportal":"JARDÍ ENGUERA","suprimida":0,"denominacion":"Parc de l'Oest (508)","lineas":"70,93,N4","proximas_llegadas":"http://www.emtvalencia.es/QR.php?sec=est&p=508"}},{"type":"Feature","id":3811242,"geometry":{"type":"Point","coordinates":[-0.38874343457259519,39.460240783002774]},"properties":{"gid":3811242,"id_parada":548,"codvia":38250,"numportal":"12 (PLAÇA)","suprimida":0,"denominacion":"Mercat de Jesús (548)","lineas":"11","proximas_llegadas":"http://www.emtvalencia.es/QR.php?sec=est&p=548"}},{"type":"Feature","id":3811243,"geometry":{"type":"Point","coordinates":[-0.39622330211505463,39.448062421908418]},"properties":{"gid":3811243,"id_parada":564,"codvia":70500,"numportal":"S/N","suprimida":0,"denominacion":"Cementeri (564)","lineas":"10","proximas_llegadas":"http://www.emtvalencia.es/QR.php?sec=est&p=564"}},{"type":"Feature","id":3811244,"geometry":{"type":"Point","coordinates":[-0.37525102444817704,39.479093765277902]},"properties":{"gid":3811244,"id_parada":771,"codvia":null,"numportal":"ILLETA","suprimida":0,"denominacion":"Torres dels Serrans (771)","lineas":"28,95,C1","proximas_llegadas":"http://www.emtvalencia.es/QR.php?sec=est&p=771"}},{"type":"Feature","id":3811245,"geometry":{"type":"Point","coordinates":[-0.36572360897366668,39.455462366463664]},"properties":{"gid":3811245,"id_parada":892,"codvia":59610,"numportal":"S/N","suprimida":0,"denominacion":"la Plata - Poeta Miguel Hernández (892)","lineas":"18","proximas_llegadas":"http://www.emtvalencia.es/QR.php?sec=est&p=892"}},{"type":"Feature","id":3811246,"geometry":{"type":"Point","coordinates":[-0.370490966209295,39.423420317684823]},"properties":{"gid":3811246,"id_parada":912,"codvia":null,"numportal":"68","suprimida":0,"denominacion":"Camí de les Vaques (parell) -  (912)","lineas":"14","proximas_llegadas":"http://www.emtvalencia.es/QR.php?sec=est&p=912"}},{"type":"Feature","id":3811247,"geometry":{"type":"Point","coordinates":[-0.34362420586653081,39.435439185240583]},"properties":{"gid":3811247,"id_parada":921,"codvia":46770,"numportal":"172","suprimida":0,"denominacion":"Carrera del Riu - Entrada Sanques (921)","lineas":"15","proximas_llegadas":"http://www.emtvalencia.es/QR.php?sec=est&p=921"}},{"type":"Feature","id":3811248,"geometry":{"type":"Point","coordinates":[-0.34502478574289586,39.421431881852769]},"properties":{"gid":3811248,"id_parada":930,"codvia":null,"numportal":"163","suprimida":0,"denominacion":"el Tremolar - Camí Racó (930)","lineas":"14","proximas_llegadas":"http://www.emtvalencia.es/QR.php?sec=est&p=930"}},{"type":"Feature","id":3811283,"geometry":{"type":"Point","coordinates":[-0.40001382965224752,39.490771838642523]},"properties":{"gid":3811283,"id_parada":1566,"codvia":81575,"numportal":"35","suprimida":0,"denominacion":"Beniferri (1566)","lineas":"62,63,99,N3","proximas_llegadas":"http://www.emtvalencia.es/QR.php?sec=est&p=1566"}},{"type":"Feature","id":3811504,"geometry":{"type":"Point","coordinates":[-0.36246257648302826,39.48957374405483]},"properties":{"gid":3811504,"id_parada":1841,"codvia":74650,"numportal":"4","suprimida":0,"denominacion":"Valladolid - Vinaròs (1841)","lineas":"12,70","proximas_llegadas":"http://www.emtvalencia.es/QR.php?sec=est&p=1841"}},{"type":"Feature","id":3811980,"geometry":{"type":"Point","coordinates":[-0.33758006911318128,39.462791752047224]},"properties":{"gid":3811980,"id_parada":1602,"codvia":71130,"numportal":"11","suprimida":0,"denominacion":"Serradora - Peanya (1602)","lineas":"99,N9","proximas_llegadas":"http://www.emtvalencia.es/QR.php?sec=est&p=1602"}},{"type":"Feature","id":3812264,"geometry":{"type":"Point","coordinates":[-0.37686260322334036,39.472085523871051]},"properties":{"gid":3812264,"id_parada":2220,"codvia":17760,"numportal":"9 (DAVANT) ILLETA","suprimida":0,"denominacion":"Llotja - Mercat Central (2220)","lineas":"C1","proximas_llegadas":"http://www.emtvalencia.es/QR.php?sec=est&p=2220"}},{"type":"Feature","id":3811609,"geometry":{"type":"Point","coordinates":[-0.33986655379133462,39.461252444837221]},"properties":{"gid":3811609,"id_parada":2060,"codvia":36690,"numportal":"6","suprimida":0,"denominacion":"Eivissa (parell) - Illes Canàries (2060)","lineas":"99,N9","proximas_llegadas":"http://www.emtvalencia.es/QR.php?sec=est&p=2060"}},{"type":"Feature","id":3811610,"geometry":{"type":"Point","coordinates":[-0.397790087905668,39.479155469594517]},"properties":{"gid":3811610,"id_parada":2097,"codvia":74730,"numportal":"37","suprimida":0,"denominacion":"Vall de la Ballestera (imparell) - Mestre Rodrigo (2097)","lineas":"98,99","proximas_llegadas":"http://www.emtvalencia.es/QR.php?sec=est&p=2097"}},{"type":"Feature","id":3811611,"geometry":{"type":"Point","coordinates":[-0.4004944263544219,39.47853373188218]},"properties":{"gid":3811611,"id_parada":2098,"codvia":74730,"numportal":"42","suprimida":0,"denominacion":"Hospital 9 d'Octubre (2098)","lineas":"98,99","proximas_llegadas":"http://www.emtvalencia.es/QR.php?sec=est&p=2098"}},{"type":"Feature","id":3811612,"geometry":{"type":"Point","coordinates":[-0.3764386548335048,39.458308790010449]},"properties":{"gid":3811612,"id_parada":2154,"codvia":30210,"numportal":"35 ACC.","suprimida":0,"denominacion":"Parc Central (2154)","lineas":"8","proximas_llegadas":"http://www.emtvalencia.es/QR.php?sec=est&p=2154"}},{"type":"Feature","id":3811613,"geometry":{"type":"Point","coordinates":[-0.37882059643762234,39.460758321513801]},"properties":{"gid":3811613,"id_parada":2127,"codvia":30210,"numportal":"2ACC","suprimida":0,"denominacion":"Filipines - Gibraltar (2127)","lineas":"8","proximas_llegadas":"http://www.emtvalencia.es/QR.php?sec=est&p=2127"}},{"type":"Feature","id":3811614,"geometry":{"type":"Point","coordinates":[-0.29741631454422524,39.307562320650234]},"properties":{"gid":3811614,"id_parada":2177,"codvia":32880,"numportal":"35","suprimida":0,"denominacion":"Centre de Salut El Perellonet (2177)","lineas":"25","proximas_llegadas":"http://www.emtvalencia.es/QR.php?sec=est&p=2177"}},{"type":"Feature","id":3811249,"geometry":{"type":"Point","coordinates":[-0.35947755822972521,39.423429892810411]},"properties":{"gid":3811249,"id_parada":933,"codvia":null,"numportal":"63","suprimida":0,"denominacion":"el Tremolar - Casa Rabot (933)","lineas":"14","proximas_llegadas":"http://www.emtvalencia.es/QR.php?sec=est&p=933"}},{"type":"Feature","id":3811250,"geometry":{"type":"Point","coordinates":[-0.35951101901363386,39.423296799648703]},"properties":{"gid":3811250,"id_parada":935,"codvia":null,"numportal":"54","suprimida":0,"denominacion":"el Tremolar - Cases Grill (935)","lineas":"14","proximas_llegadas":"http://www.emtvalencia.es/QR.php?sec=est&p=935"}},{"type":"Feature","id":3811251,"geometry":{"type":"Point","coordinates":[-0.35045196978495818,39.422173855835965]},"properties":{"gid":3811251,"id_parada":937,"codvia":null,"numportal":"146","suprimida":0,"denominacion":"el Tremolar - Font d'en Corts (937)","lineas":"14","proximas_llegadas":"http://www.emtvalencia.es/QR.php?sec=est&p=937"}},{"type":"Feature","id":3811252,"geometry":{"type":"Point","coordinates":[-0.35862208622364139,39.520561703806727]},"properties":{"gid":3811252,"id_parada":950,"codvia":null,"numportal":"66","suprimida":0,"denominacion":"Cases de Bàrcena II - (950)","lineas":"16","proximas_llegadas":"http://www.emtvalencia.es/QR.php?sec=est&p=950"}},{"type":"Feature","id":3811253,"geometry":{"type":"Point","coordinates":[-0.35876203721985245,39.520613640932353]},"properties":{"gid":3811253,"id_parada":954,"codvia":null,"numportal":"61","suprimida":0,"denominacion":"Cases de Bàrcena V -  (954)","lineas":"16","proximas_llegadas":"http://www.emtvalencia.es/QR.php?sec=est&p=954"}},{"type":"Feature","id":3811254,"geometry":{"type":"Point","coordinates":[-0.35917446574835532,39.481774341351915]},"properties":{"gid":3811254,"id_parada":967,"codvia":81272,"numportal":"ILLETA","suprimida":0,"denominacion":"Ramón Asensio - Guàrdia Civil (967)","lineas":"10","proximas_llegadas":"http://www.emtvalencia.es/QR.php?sec=est&p=967"}},{"type":"Feature","id":3811255,"geometry":{"type":"Point","coordinates":[-0.34446809747526086,39.449482671002265]},"properties":{"gid":3811255,"id_parada":1008,"codvia":38290,"numportal":"54","suprimida":0,"denominacion":"Jesús Morante Borràs (II) -  (1008)","lineas":"15","proximas_llegadas":"http://www.emtvalencia.es/QR.php?sec=est&p=1008"}},{"type":"Feature","id":3811256,"geometry":{"type":"Point","coordinates":[-0.3436738745890533,39.441347357125352]},"properties":{"gid":3811256,"id_parada":1012,"codvia":38290,"numportal":"201","suprimida":0,"denominacion":"Jesús Morante Borrás (VI) (1012)","lineas":"15","proximas_llegadas":"http://www.emtvalencia.es/QR.php?sec=est&p=1012"}},{"type":"Feature","id":3811267,"geometry":{"type":"Point","coordinates":[-0.40526080547415338,39.464397675087085]},"properties":{"gid":3811267,"id_parada":1307,"codvia":73920,"numportal":"49","suprimida":0,"denominacion":"Tres Creus - Llombai (1307)","lineas":"70","proximas_llegadas":"http://www.emtvalencia.es/QR.php?sec=est&p=1307"}},{"type":"Feature","id":3811401,"geometry":{"type":"Point","coordinates":[-0.36180952356198437,39.460346896844541]},"properties":{"gid":3811401,"id_parada":683,"codvia":28500,"numportal":"30","suprimida":0,"denominacion":"Escultor J. Capuz (parell) - Pere Aleixandre (683)","lineas":"14,18","proximas_llegadas":"http://www.emtvalencia.es/QR.php?sec=est&p=683"}},{"type":"Feature","id":3811499,"geometry":{"type":"Point","coordinates":[-0.36047062722618045,39.467253799078463]},"properties":{"gid":3811499,"id_parada":1775,"codvia":58710,"numportal":"32 (DAVANT)","suprimida":0,"denominacion":"Palau de la Música  (1775)","lineas":"94","proximas_llegadas":"http://www.emtvalencia.es/QR.php?sec=est&p=1775"}},{"type":"Feature","id":3811537,"geometry":{"type":"Point","coordinates":[-0.38098106139532484,39.481075167988116]},"properties":{"gid":3811537,"id_parada":1305,"codvia":35100,"numportal":"160","suprimida":0,"denominacion":"Na Jordana (1305)","lineas":"28,95,C1","proximas_llegadas":"http://www.emtvalencia.es/QR.php?sec=est&p=1305"}},{"type":"Feature","id":3811556,"geometry":{"type":"Point","coordinates":[-0.3940344980711975,39.491949384030001]},"properties":{"gid":3811556,"id_parada":1332,"codvia":30510,"numportal":"63","suprimida":0,"denominacion":"Garbí (1332)","lineas":"28","proximas_llegadas":"http://www.emtvalencia.es/QR.php?sec=est&p=1332"}},{"type":"Feature","id":3812303,"geometry":{"type":"Point","coordinates":[-0.36386092970327349,39.457153460748792]},"properties":{"gid":3812303,"id_parada":2292,"codvia":33480,"numportal":"44","suprimida":0,"denominacion":"Amado Granell Mesado (parell) - la Plata (2292)","lineas":"35,6,N9","proximas_llegadas":"http://www.emtvalencia.es/QR.php?sec=est&p=2292"}},{"type":"Feature","id":3812304,"geometry":{"type":"Point","coordinates":[-0.3626746350495243,39.455528206439517]},"properties":{"gid":3812304,"id_parada":2293,"codvia":33480,"numportal":"60","suprimida":0,"denominacion":"Amado Granell Mesado (parell) - Arabista Ambrosio Huici (2293)","lineas":"14,35,N9","proximas_llegadas":"http://www.emtvalencia.es/QR.php?sec=est&p=2293"}},{"type":"Feature","id":3812305,"geometry":{"type":"Point","coordinates":[-0.36366489817593761,39.457304749199643]},"properties":{"gid":3812305,"id_parada":2299,"codvia":33480,"numportal":"49","suprimida":0,"denominacion":"Amado Granell Mesado (imparell) - la Plata (2299)","lineas":"35,N9","proximas_llegadas":"http://www.emtvalencia.es/QR.php?sec=est&p=2299"}},{"type":"Feature","id":3812306,"geometry":{"type":"Point","coordinates":[-0.38158427265572847,39.460830086686038]},"properties":{"gid":3812306,"id_parada":2284,"codvia":8040,"numportal":"S/N (ESTACIO)","suprimida":0,"denominacion":"Estació Joaquín Sorolla (2284)","lineas":"64","proximas_llegadas":"http://www.emtvalencia.es/QR.php?sec=est&p=2284"}},{"type":"Feature","id":3812307,"geometry":{"type":"Point","coordinates":[-0.38041235923977101,39.472712286357293]},"properties":{"gid":3812307,"id_parada":2287,"codvia":26160,"numportal":"5","suprimida":0,"denominacion":"Editor Manuel Aguilar - Guillem Sorolla (2287)","lineas":"11,60,62,73","proximas_llegadas":"http://www.emtvalencia.es/QR.php?sec=est&p=2287"}},{"type":"Feature","id":3812324,"geometry":{"type":"Point","coordinates":[-0.33419726830077195,39.470151452967023]},"properties":{"gid":3812324,"id_parada":2229,"codvia":45810,"numportal":"12ACC","suprimida":0,"denominacion":"Estació del Cabanyal (2229)","lineas":"98","proximas_llegadas":"http://www.emtvalencia.es/QR.php?sec=est&p=2229"}},{"type":"Feature","id":3812325,"geometry":{"type":"Point","coordinates":[-0.36937886145462573,39.484134105928334]},"properties":{"gid":3812325,"id_parada":2232,"codvia":1440,"numportal":"44 ACC.","suprimida":0,"denominacion":"Alboraia - Jaca (2232)","lineas":"11,N10","proximas_llegadas":"http://www.emtvalencia.es/QR.php?sec=est&p=2232"}},{"type":"Feature","id":3812326,"geometry":{"type":"Point","coordinates":[-0.37065555486673785,39.48632751204083]},"properties":{"gid":3812326,"id_parada":2233,"codvia":2790,"numportal":"56 (DAVANT)","suprimida":0,"denominacion":"Almassora - Argenter Suàrez (2233)","lineas":"11","proximas_llegadas":"http://www.emtvalencia.es/QR.php?sec=est&p=2233"}},{"type":"Feature","id":3812327,"geometry":{"type":"Point","coordinates":[-0.36781037590157295,39.446875036384817]},"properties":{"gid":3812327,"id_parada":2238,"codvia":81612,"numportal":"S/N (COL.LEGI)","suprimida":0,"denominacion":"Actor Antonio Ferrandis (parell) - Font de St. Lluís (2238)","lineas":"99","proximas_llegadas":"http://www.emtvalencia.es/QR.php?sec=est&p=2238"}},{"type":"Feature","id":3812328,"geometry":{"type":"Point","coordinates":[-0.40609045944731204,39.46987515747994]},"properties":{"gid":3812328,"id_parada":2099,"codvia":53070,"numportal":"S/N (ILLETA)","suprimida":0,"denominacion":"Nou d'Octubre (2099)","lineas":"99","proximas_llegadas":"http://www.emtvalencia.es/QR.php?sec=est&p=2099"}},{"type":"Feature","id":3812329,"geometry":{"type":"Point","coordinates":[-0.37688249112735944,39.468075607180793]},"properties":{"gid":3812329,"id_parada":2278,"codvia":46290,"numportal":"9","suprimida":0,"denominacion":"Marqués de Sotelo (2278)","lineas":"32,81,N10,N2","proximas_llegadas":"http://www.emtvalencia.es/QR.php?sec=est&p=2278"}},{"type":"Feature","id":3811428,"geometry":{"type":"Point","coordinates":[-0.36298540020349751,39.483195499749471]},"properties":{"gid":3811428,"id_parada":175,"codvia":37890,"numportal":"26","suprimida":0,"denominacion":"Jaume Roig - Primat Reig (175)","lineas":"12,70","proximas_llegadas":"http://www.emtvalencia.es/QR.php?sec=est&p=175"}},{"type":"Feature","id":3811237,"geometry":{"type":"Point","coordinates":[-0.37128733686785625,39.479056527205856]},"properties":{"gid":3811237,"id_parada":338,"codvia":69060,"numportal":"3","suprimida":0,"denominacion":"Museu de Belles Arts (338)","lineas":"11,16,26,6,79,94,95,N10","proximas_llegadas":"http://www.emtvalencia.es/QR.php?sec=est&p=338"}},{"type":"Feature","id":3811257,"geometry":{"type":"Point","coordinates":[-0.34428100207384699,39.449373939290034]},"properties":{"gid":3811257,"id_parada":1015,"codvia":38290,"numportal":"56 (DAVANT)","suprimida":0,"denominacion":"Jesús Morante Borràs (IX) - (1015)","lineas":"15","proximas_llegadas":"http://www.emtvalencia.es/QR.php?sec=est&p=1015"}},{"type":"Feature","id":3811258,"geometry":{"type":"Point","coordinates":[-0.3607102765834877,39.432437877199909]},"properties":{"gid":3811258,"id_parada":1026,"codvia":null,"numportal":"DAVANT  ADOR","suprimida":0,"denominacion":"Ribàs (imparell) - Ador (1026)","lineas":"14","proximas_llegadas":"http://www.emtvalencia.es/QR.php?sec=est&p=1026"}},{"type":"Feature","id":3811259,"geometry":{"type":"Point","coordinates":[-0.36394433741255872,39.424486133632428]},"properties":{"gid":3811259,"id_parada":1030,"codvia":null,"numportal":"60","suprimida":0,"denominacion":"Crist del Refugi - Davant Sant Agustí (1030)","lineas":"14","proximas_llegadas":"http://www.emtvalencia.es/QR.php?sec=est&p=1030"}},{"type":"Feature","id":3811260,"geometry":{"type":"Point","coordinates":[-0.38396851557702177,39.529606011772159]},"properties":{"gid":3811260,"id_parada":1136,"codvia":null,"numportal":"S/N","suprimida":0,"denominacion":"Palma de Gandia - Venta del Moro (1136)","lineas":"26","proximas_llegadas":"http://www.emtvalencia.es/QR.php?sec=est&p=1136"}},{"type":"Feature","id":3811261,"geometry":{"type":"Point","coordinates":[-0.38547800593909137,39.530788708419351]},"properties":{"gid":3811261,"id_parada":1139,"codvia":null,"numportal":"97","suprimida":0,"denominacion":"Ferrer i Bigné - Nelo el Fariner (1139)","lineas":"26","proximas_llegadas":"http://www.emtvalencia.es/QR.php?sec=est&p=1139"}},{"type":"Feature","id":3811262,"geometry":{"type":"Point","coordinates":[-0.35965910879421775,39.447442188346542]},"properties":{"gid":3811262,"id_parada":1149,"codvia":31740,"numportal":"66-68","suprimida":0,"denominacion":"Font d'en Corts (parell) - Davant Alqueria Reial (1149)","lineas":"14","proximas_llegadas":"http://www.emtvalencia.es/QR.php?sec=est&p=1149"}},{"type":"Feature","id":3811263,"geometry":{"type":"Point","coordinates":[-0.32466645998859289,39.473507646316314]},"properties":{"gid":3811263,"id_parada":1158,"codvia":990215,"numportal":"CASABLANCA","suprimida":0,"denominacion":"Passeig Marítim - Séquia de la Cadena (1158)","lineas":"32","proximas_llegadas":"http://www.emtvalencia.es/QR.php?sec=est&p=1158"}},{"type":"Feature","id":3811264,"geometry":{"type":"Point","coordinates":[-0.32467456570039949,39.481265670630378]},"properties":{"gid":3811264,"id_parada":1161,"codvia":990215,"numportal":"DAVANT FONT D'EN CARRÓS","suprimida":0,"denominacion":"Passeig Marítim - Font d'en Carrós (1161)","lineas":"32","proximas_llegadas":"http://www.emtvalencia.es/QR.php?sec=est&p=1161"}},{"type":"Feature","id":3811265,"geometry":{"type":"Point","coordinates":[-0.36887381262286867,39.496930013580368]},"properties":{"gid":3811265,"id_parada":1229,"codvia":70350,"numportal":"SANT JOAN BOSCO","suprimida":0,"denominacion":"Orriols - Sant Miquel dels Reis (1229)","lineas":"11","proximas_llegadas":"http://www.emtvalencia.es/QR.php?sec=est&p=1229"}},{"type":"Feature","id":3811266,"geometry":{"type":"Point","coordinates":[-0.36391505892184955,39.427853233062962]},"properties":{"gid":3811266,"id_parada":1289,"codvia":null,"numportal":"25","suprimida":0,"denominacion":"Vicent Puchol - Arbres (1289)","lineas":"14","proximas_llegadas":"http://www.emtvalencia.es/QR.php?sec=est&p=1289"}},{"type":"Feature","id":3811268,"geometry":{"type":"Point","coordinates":[-0.38633230209154418,39.517698281674463]},"properties":{"gid":3811268,"id_parada":1329,"codvia":null,"numportal":"s/n","suprimida":0,"denominacion":"Palmaret - Montcada (1329)","lineas":"26","proximas_llegadas":"http://www.emtvalencia.es/QR.php?sec=est&p=1329"}},{"type":"Feature","id":3811269,"geometry":{"type":"Point","coordinates":[-0.38445875540523172,39.452986589447313]},"properties":{"gid":3811269,"id_parada":1350,"codvia":69330,"numportal":"267","suprimida":0,"denominacion":"Sant Vicent Màrtir - Almudaina (1350)","lineas":"27,64,N6","proximas_llegadas":"http://www.emtvalencia.es/QR.php?sec=est&p=1350"}},{"type":"Feature","id":3811270,"geometry":{"type":"Point","coordinates":[-0.35285151320344921,39.461067519382574]},"properties":{"gid":3811270,"id_parada":1365,"codvia":54990,"numportal":"ROTONDA (IMPAR)","suprimida":0,"denominacion":"Tomàs Montañana - França (1365)","lineas":"40","proximas_llegadas":"http://www.emtvalencia.es/QR.php?sec=est&p=1365"}},{"type":"Feature","id":3811271,"geometry":{"type":"Point","coordinates":[-0.3353619304379461,39.447262993662939]},"properties":{"gid":3811271,"id_parada":1376,"codvia":13920,"numportal":"40","suprimida":0,"denominacion":"Camí del Canal (imparell) - Guitarrista Tàrrega (1376)","lineas":"15","proximas_llegadas":"http://www.emtvalencia.es/QR.php?sec=est&p=1376"}},{"type":"Feature","id":3811273,"geometry":{"type":"Point","coordinates":[-0.36126812129630476,39.463451447446765]},"properties":{"gid":3811273,"id_parada":1428,"codvia":37650,"numportal":"S/N","suprimida":0,"denominacion":"Jacinto Benavente - Peris i Valero (1428)","lineas":"13,24,25,95","proximas_llegadas":"http://www.emtvalencia.es/QR.php?sec=est&p=1428"}},{"type":"Feature","id":3811274,"geometry":{"type":"Point","coordinates":[-0.38722604649143327,39.4463937783378]},"properties":{"gid":3811274,"id_parada":1441,"codvia":25080,"numportal":"43(DAVANT CARRIL BUS)","suprimida":0,"denominacion":"Dr. Tomàs Sala (parell) - Sant Vicent Màrtir (1441)","lineas":"18,9,99,N6","proximas_llegadas":"http://www.emtvalencia.es/QR.php?sec=est&p=1441"}},{"type":"Feature","id":3811275,"geometry":{"type":"Point","coordinates":[-0.39794046128677896,39.442944828505219]},"properties":{"gid":3811275,"id_parada":1475,"codvia":58020,"numportal":"S/N","suprimida":0,"denominacion":"Tanatori Municipal (1475)","lineas":"10","proximas_llegadas":"http://www.emtvalencia.es/QR.php?sec=est&p=1475"}},{"type":"Feature","id":3811276,"geometry":{"type":"Point","coordinates":[-0.33905839138229127,39.466912421450772]},"properties":{"gid":3811276,"id_parada":1500,"codvia":70620,"numportal":"JUNT COLEGI","suprimida":0,"denominacion":"Sants Just i Pastor - Escultor Esteve Edo (1500)","lineas":"32","proximas_llegadas":"http://www.emtvalencia.es/QR.php?sec=est&p=1500"}},{"type":"Feature","id":3811277,"geometry":{"type":"Point","coordinates":[-0.3500936831792188,39.460092351254708]},"properties":{"gid":3811277,"id_parada":1534,"codvia":30960,"numportal":"18 (davant)","suprimida":0,"denominacion":"França-Vicente Beltrán (1534)","lineas":"19","proximas_llegadas":"http://www.emtvalencia.es/QR.php?sec=est&p=1534"}},{"type":"Feature","id":3811278,"geometry":{"type":"Point","coordinates":[-0.35841229885008719,39.463167259608106]},"properties":{"gid":3811278,"id_parada":1536,"codvia":58710,"numportal":"s/n","suprimida":0,"denominacion":"Parc Gulliver  (1536)","lineas":"19,94","proximas_llegadas":"http://www.emtvalencia.es/QR.php?sec=est&p=1536"}},{"type":"Feature","id":3811279,"geometry":{"type":"Point","coordinates":[-0.3427999028776571,39.459034694590102]},"properties":{"gid":3811279,"id_parada":1541,"codvia":47790,"numportal":"s/n","suprimida":0,"denominacion":"Menorca - Balears (1541)","lineas":"19,99,N9","proximas_llegadas":"http://www.emtvalencia.es/QR.php?sec=est&p=1541"}},{"type":"Feature","id":3811280,"geometry":{"type":"Point","coordinates":[-0.3288024115801968,39.483501925787834]},"properties":{"gid":3811280,"id_parada":1546,"codvia":34620,"numportal":"42","suprimida":0,"denominacion":"La Malva-rosa - Gran Canària (1546)","lineas":"92","proximas_llegadas":"http://www.emtvalencia.es/QR.php?sec=est&p=1546"}},{"type":"Feature","id":3811281,"geometry":{"type":"Point","coordinates":[-0.32906203732332479,39.475436054085293]},"properties":{"gid":3811281,"id_parada":1551,"codvia":42340,"numportal":"43","suprimida":0,"denominacion":"La Cadena - Pare Antón Martí (1551)","lineas":"92,93,98","proximas_llegadas":"http://www.emtvalencia.es/QR.php?sec=est&p=1551"}},{"type":"Feature","id":3811282,"geometry":{"type":"Point","coordinates":[-0.38139641568699417,39.516215170506058]},"properties":{"gid":3811282,"id_parada":1562,"codvia":null,"numportal":"s/n","suprimida":0,"denominacion":"Palmaret - Rosa dels Vents (1562)","lineas":"26","proximas_llegadas":"http://www.emtvalencia.es/QR.php?sec=est&p=1562"}},{"type":"Feature","id":3811284,"geometry":{"type":"Point","coordinates":[-0.3895859180951039,39.488118041999172]},"properties":{"gid":3811284,"id_parada":319,"codvia":2400,"numportal":"1","suprimida":0,"denominacion":"Campanar - Dr. Nicasi Benlloch (319)","lineas":"60,64,90","proximas_llegadas":"http://www.emtvalencia.es/QR.php?sec=est&p=319"}},{"type":"Feature","id":3811285,"geometry":{"type":"Point","coordinates":[-0.37501465688916152,39.488828294044978]},"properties":{"gid":3811285,"id_parada":323,"codvia":66330,"numportal":"168","suprimida":0,"denominacion":"Sagunt - Pare Urbà (323)","lineas":"16,26,6","proximas_llegadas":"http://www.emtvalencia.es/QR.php?sec=est&p=323"}},{"type":"Feature","id":3811286,"geometry":{"type":"Point","coordinates":[-0.37599760734699206,39.489312735808333]},"properties":{"gid":3811286,"id_parada":326,"codvia":62610,"numportal":"85","suprimida":0,"denominacion":"Constitució - Xest (326)","lineas":"16,26,6,N10","proximas_llegadas":"http://www.emtvalencia.es/QR.php?sec=est&p=326"}},{"type":"Feature","id":3811287,"geometry":{"type":"Point","coordinates":[-0.37875933839996456,39.485225490769935]},"properties":{"gid":3811287,"id_parada":328,"codvia":62610,"numportal":"27","suprimida":0,"denominacion":"Constitució - Màlaga (328)","lineas":"16,26,6,N10","proximas_llegadas":"http://www.emtvalencia.es/QR.php?sec=est&p=328"}},{"type":"Feature","id":3811288,"geometry":{"type":"Point","coordinates":[-0.38317806170721208,39.48381268915832]},"properties":{"gid":3811288,"id_parada":330,"codvia":12540,"numportal":"26","suprimida":0,"denominacion":"Burjassot - Màlaga (330)","lineas":"94","proximas_llegadas":"http://www.emtvalencia.es/QR.php?sec=est&p=330"}},{"type":"Feature","id":3811289,"geometry":{"type":"Point","coordinates":[-0.3754961789160185,39.482006220611204]},"properties":{"gid":3811289,"id_parada":342,"codvia":34860,"numportal":"2","suprimida":0,"denominacion":"Guadalaviar - Sagunt (342)","lineas":"79,94,95","proximas_llegadas":"http://www.emtvalencia.es/QR.php?sec=est&p=342"}},{"type":"Feature","id":3811290,"geometry":{"type":"Point","coordinates":[-0.37776678586373685,39.482923946593871]},"properties":{"gid":3811290,"id_parada":343,"codvia":43380,"numportal":"2","suprimida":0,"denominacion":"El Pla de la Saïdia - Constitució (343)","lineas":"79,94,95","proximas_llegadas":"http://www.emtvalencia.es/QR.php?sec=est&p=343"}},{"type":"Feature","id":3811291,"geometry":{"type":"Point","coordinates":[-0.38859975306625139,39.487236822920792]},"properties":{"gid":3811291,"id_parada":353,"codvia":24660,"numportal":"3","suprimida":0,"denominacion":"Dr. Nicasi Benlloch - Alcubles (353)","lineas":"28,94","proximas_llegadas":"http://www.emtvalencia.es/QR.php?sec=est&p=353"}},{"type":"Feature","id":3811292,"geometry":{"type":"Point","coordinates":[-0.39068798371377594,39.485891748935281]},"properties":{"gid":3811292,"id_parada":364,"codvia":2400,"numportal":"19","suprimida":0,"denominacion":"Campanar - Ricardo Micó (364)","lineas":"60,90","proximas_llegadas":"http://www.emtvalencia.es/QR.php?sec=est&p=364"}},{"type":"Feature","id":3811293,"geometry":{"type":"Point","coordinates":[-0.39323194066372796,39.480420999018378]},"properties":{"gid":3811293,"id_parada":370,"codvia":2400,"numportal":"27","suprimida":0,"denominacion":"Campanar - Pius XII (370)","lineas":"90","proximas_llegadas":"http://www.emtvalencia.es/QR.php?sec=est&p=370"}},{"type":"Feature","id":3811294,"geometry":{"type":"Point","coordinates":[-0.39168959243509271,39.479268117618766]},"properties":{"gid":3811294,"id_parada":409,"codvia":59490,"numportal":"1","suprimida":0,"denominacion":"Pius XII - Centre Comercial (409)","lineas":"60,62,63,64,92,N3","proximas_llegadas":"http://www.emtvalencia.es/QR.php?sec=est&p=409"}},{"type":"Feature","id":3811295,"geometry":{"type":"Point","coordinates":[-0.39366758761752035,39.471995900438458]},"properties":{"gid":3811295,"id_parada":426,"codvia":57300,"numportal":"117","suprimida":0,"denominacion":"Pérez Galdós - Torres Torres (426)","lineas":"67,89","proximas_llegadas":"http://www.emtvalencia.es/QR.php?sec=est&p=426"}},{"type":"Feature","id":3811296,"geometry":{"type":"Point","coordinates":[-0.39207492487661633,39.468481719760781]},"properties":{"gid":3811296,"id_parada":428,"codvia":42090,"numportal":"4","suprimida":0,"denominacion":"Llorca - Pérez Galdós (428)","lineas":"72,N5","proximas_llegadas":"http://www.emtvalencia.es/QR.php?sec=est&p=428"}},{"type":"Feature","id":3811297,"geometry":{"type":"Point","coordinates":[-0.38424870165200703,39.459082170493843]},"properties":{"gid":3811297,"id_parada":436,"codvia":33900,"numportal":"39","suprimida":0,"denominacion":"Jesús (436)","lineas":"90","proximas_llegadas":"http://www.emtvalencia.es/QR.php?sec=est&p=436"}},{"type":"Feature","id":3811303,"geometry":{"type":"Point","coordinates":[-0.36712663659770584,39.446274706823672]},"properties":{"gid":3811303,"id_parada":631,"codvia":31920,"numportal":"142","suprimida":0,"denominacion":"Fonteta Sant Lluís - Riu Sec (631)","lineas":"13,7,N7","proximas_llegadas":"http://www.emtvalencia.es/QR.php?sec=est&p=631"}},{"type":"Feature","id":3811304,"geometry":{"type":"Point","coordinates":[-0.35825738921842021,39.445592550233378]},"properties":{"gid":3811304,"id_parada":658,"codvia":31740,"numportal":"88","suprimida":0,"denominacion":"Font d'en Corts (parell) - Roig de lagarda (658)","lineas":"14","proximas_llegadas":"http://www.emtvalencia.es/QR.php?sec=est&p=658"}},{"type":"Feature","id":3811305,"geometry":{"type":"Point","coordinates":[-0.36114376110192448,39.42362186950453]},"properties":{"gid":3811305,"id_parada":663,"codvia":null,"numportal":"23","suprimida":0,"denominacion":"el Tremolar - Crist del Refugi (663)","lineas":"14","proximas_llegadas":"http://www.emtvalencia.es/QR.php?sec=est&p=663"}},{"type":"Feature","id":3811306,"geometry":{"type":"Point","coordinates":[-0.36413090540161985,39.426284509751468]},"properties":{"gid":3811306,"id_parada":665,"codvia":null,"numportal":"5","suprimida":0,"denominacion":"Crist del Refugi - Ctra. Del Pí (665)","lineas":"14","proximas_llegadas":"http://www.emtvalencia.es/QR.php?sec=est&p=665"}},{"type":"Feature","id":3811307,"geometry":{"type":"Point","coordinates":[-0.36076083494010713,39.43233939658559]},"properties":{"gid":3811307,"id_parada":669,"codvia":null,"numportal":"14","suprimida":0,"denominacion":"Ribàs (parell) - Ador (669)","lineas":"14","proximas_llegadas":"http://www.emtvalencia.es/QR.php?sec=est&p=669"}},{"type":"Feature","id":3811308,"geometry":{"type":"Point","coordinates":[-0.35822365033127168,39.445669898708644]},"properties":{"gid":3811308,"id_parada":673,"codvia":31740,"numportal":"99","suprimida":0,"denominacion":"Font d'en Corts (imparell) - Roig de lagarda (673)","lineas":"14","proximas_llegadas":"http://www.emtvalencia.es/QR.php?sec=est&p=673"}},{"type":"Feature","id":3811309,"geometry":{"type":"Point","coordinates":[-0.40575275632065544,39.469511599069818]},"properties":{"gid":3811309,"id_parada":700,"codvia":18390,"numportal":"S/N","suprimida":0,"denominacion":"Hospital General (700)","lineas":"93,N4","proximas_llegadas":"http://www.emtvalencia.es/QR.php?sec=est&p=700"}},{"type":"Feature","id":3811310,"geometry":{"type":"Point","coordinates":[-0.42639409110458576,39.502306743815979]},"properties":{"gid":3811310,"id_parada":1153,"codvia":null,"numportal":"32","suprimida":0,"denominacion":"Velòdrom Lluís Puig (1153)","lineas":"62","proximas_llegadas":"http://www.emtvalencia.es/QR.php?sec=est&p=1153"}},{"type":"Feature","id":3811311,"geometry":{"type":"Point","coordinates":[-0.32856747112658369,39.467571542526095]},"properties":{"gid":3811311,"id_parada":1242,"codvia":47580,"numportal":"32","suprimida":0,"denominacion":"Mediterrània - Dr. Lluch (1242)","lineas":"32","proximas_llegadas":"http://www.emtvalencia.es/QR.php?sec=est&p=1242"}},{"type":"Feature","id":3811312,"geometry":{"type":"Point","coordinates":[-0.36907985561477163,39.471085319391122]},"properties":{"gid":3811312,"id_parada":1263,"codvia":20220,"numportal":"3","suprimida":0,"denominacion":"Comte de Salvatierra - Colón (1263)","lineas":"13,40","proximas_llegadas":"http://www.emtvalencia.es/QR.php?sec=est&p=1263"}},{"type":"Feature","id":3811313,"geometry":{"type":"Point","coordinates":[-0.40637978814508829,39.466004308666271]},"properties":{"gid":3811313,"id_parada":1274,"codvia":73920,"numportal":"10","suprimida":0,"denominacion":"Mercat de Castilla (1274)","lineas":"70,73,N5","proximas_llegadas":"http://www.emtvalencia.es/QR.php?sec=est&p=1274"}},{"type":"Feature","id":3811314,"geometry":{"type":"Point","coordinates":[-0.3951615711031698,39.478667714442928]},"properties":{"gid":3811314,"id_parada":1296,"codvia":81156,"numportal":"7","suprimida":0,"denominacion":"Marqués de Sant Joan - Campanar (1296)","lineas":"90","proximas_llegadas":"http://www.emtvalencia.es/QR.php?sec=est&p=1296"}},{"type":"Feature","id":3811315,"geometry":{"type":"Point","coordinates":[-0.37623398146340808,39.497939392725726]},"properties":{"gid":3811315,"id_parada":1128,"codvia":70530,"numportal":"94 (DAVANT)","suprimida":0,"denominacion":"Mercat de Torrefiel (1128)","lineas":"6,60","proximas_llegadas":"http://www.emtvalencia.es/QR.php?sec=est&p=1128"}},{"type":"Feature","id":3811316,"geometry":{"type":"Point","coordinates":[-0.3770885570740326,39.492515626100086]},"properties":{"gid":3811316,"id_parada":1130,"codvia":56700,"numportal":"29","suprimida":0,"denominacion":"Pere Patrici Mey - Felip Rinaldi (1130)","lineas":"60","proximas_llegadas":"http://www.emtvalencia.es/QR.php?sec=est&p=1130"}},{"type":"Feature","id":3811317,"geometry":{"type":"Point","coordinates":[-0.33558473305219294,39.470760459240353]},"properties":{"gid":3811317,"id_parada":1210,"codvia":900,"numportal":"ILLETA RENFE","suprimida":0,"denominacion":"Blasco Ibáñez - Serradora (1210)","lineas":"81","proximas_llegadas":"http://www.emtvalencia.es/QR.php?sec=est&p=1210"}},{"type":"Feature","id":3811318,"geometry":{"type":"Point","coordinates":[-0.35911566424645885,39.482228974309614]},"properties":{"gid":3811318,"id_parada":1032,"codvia":81145,"numportal":"4","suprimida":0,"denominacion":"Tírig - Guàrdia Civil (1032)","lineas":"10","proximas_llegadas":"http://www.emtvalencia.es/QR.php?sec=est&p=1032"}},{"type":"Feature","id":3811319,"geometry":{"type":"Point","coordinates":[-0.35864489194260896,39.470826231572865]},"properties":{"gid":3811319,"id_parada":1035,"codvia":81310,"numportal":"22 (DAVANT INSTITUT)","suprimida":0,"denominacion":"Aragó - Finlàndia (1035)","lineas":"10,12,80,93,N1","proximas_llegadas":"http://www.emtvalencia.es/QR.php?sec=est&p=1035"}},{"type":"Feature","id":3811320,"geometry":{"type":"Point","coordinates":[-0.38226531733803804,39.466015507661986]},"properties":{"gid":3811320,"id_parada":1041,"codvia":62670,"numportal":"25","suprimida":0,"denominacion":"Plaça d'Espanya (1041)","lineas":"63,64,79","proximas_llegadas":"http://www.emtvalencia.es/QR.php?sec=est&p=1041"}},